Numéro du support;Longitude;Latitude;Position;Insee;Lieu dit;Adresse;Code postal;Commune;Nature du support;Hauteur en m;Propriétaire
53555;5.076666666666666;45.614444444444445;"45°36'52.000""N 5°4'36.000""E";38189;LE VALENTIER;"";38540;HEYRIEUX;Pylône autostable;30.0;TOTEM
57729;4.071666666666666;45.59361111111111;"45°35'37.000""N 4°4'18.000""E";42147;"";54 AV THERMALE;42600;MONTBRISON;Immeuble;16.0;"Commune, communauté de commune"
96426;4.473611111111111;45.344722222222224;"45°20'41.000""N 4°28'25.000""E";42224;LA PAUZE;"";42660;SAINT GENEST MALIFAUX;Pylône autostable;18.0;TOTEM
96458;4.2775;45.43833333333333;"45°26'18.000""N 4°16'39.000""E";42218;LA CÔTE;ST-VICTOR-SUR-LOIRE;42000;SAINT ETIENNE;Pylône autostable;15.0;TOTEM
96488;4.0425;45.423611111111114;"45°25'25.000""N 4°2'33.000""E";42091;PICHILLON;"";42380;ESTIVAREILLES;Pylône autostable;25.0;TOTEM
96490;4.0775;45.461666666666666;"45°27'42.000""N 4°4'39.000""E";42126;TRIOLS;"";42380;LURIECQ;Pylône autostable;12.0;TOTEM
96554;4.422777777777778;45.40416666666667;"45°24'15.000""N 4°25'22.000""E";42172;OLLAGNIÈRE;"";42660;PLANFOY;Bâtiment;6.0;ORANGE
102668;4.567777777777778;45.596111111111114;"45°35'46.000""N 4°34'4.000""E";69184;"";PRÈS DE LA RIVIÈRE PLATTE STADE;69440;SAINTE CATHERINE;Pylône tubulaire;18.0;TOTEM
136494;4.996111111111111;45.346944444444446;"45°20'49.000""N 4°59'46.000""E";38290;"";LA VIE MARCHÈRE CHEM DE FERBY;38270;PACT;Pylône autostable;23.0;TOTEM
244261;4.888888888888889;45.526944444444446;"45°31'37.000""N 4°53'20.000""E";38544;"";CHEM DES ADOUSES SEIGNE;38200;VIENNE;Pylône autostable;15.0;TOTEM
248214;4.880277777777778;45.53388888888889;"45°32'2.000""N 4°52'49.000""E";38544;"";MONT SALOMON CH LUCIEN HUSSEL;38200;VIENNE;Immeuble;32.0;Etablissement de soins
283243;4.865833333333334;45.526666666666664;"45°31'36.000""N 4°51'57.000""E";69189;"";11 R DES MISSIONNAIRES;69560;SAINTE COLOMBE;Immeuble;17.0;"Copropriété, Syndic, SCI"
296730;5.149166666666667;45.606944444444444;"45°36'25.000""N 5°8'57.000""E";38553;"";10 TRAVERSE DE LA PIVOLIÈRE;38090;VILLEFONTAINE;Immeuble;28.0;Société HLM
318080;4.848611111111111;45.50138888888889;"45°30'5.000""N 4°50'55.000""E";38544;"";AV. DU GÉNÉRAL LECLERC STADE JEAN ETCHEBERRY;38200;VIENNE;Pylône tubulaire;20.0;TOTEM
320728;4.865277777777778;45.54194444444445;"45°32'31.000""N 4°51'55.000""E";38544;"";R DE LA CONVENTION;38200;VIENNE;Pylône tubulaire;22.0;TOTEM
334956;4.585555555555556;45.49527777777778;"45°29'43.000""N 4°35'8.000""E";42093;LE TRÈVE;R DES SOURCES;42320;FARNAY;Pylône autostable;30.0;TOTEM
348090;3.7911111111111113;45.465833333333336;"45°27'57.000""N 3°47'28.000""E";63371;LE SUC DU TOUR;CHEM RURAL;63600;SAINT JUST;Pylône autostable;24.0;TOTEM
352586;3.8072222222222223;45.405;"45°24'18.000""N 3°48'26.000""E";63221;LA CASSE;CHEM RURAL;63220;MEDEYROLLES;Pylône autostable;27.0;TOTEM
363459;3.781111111111111;45.6025;"45°36'9.000""N 3°46'52.000""E";63441;LA GRANDE PIÈCE;"";63600;VALCIVIERES;Pylône autostable;20.3;HIVORY
435649;4.383611111111111;45.45388888888889;"45°27'14.000""N 4°23'1.000""E";42218;"";2 R BARROUIN 56 R BERGSON;42000;SAINT ETIENNE;Immeuble;34.0;Société HLM
437021;4.503888888888889;45.520833333333336;"45°31'15.000""N 4°30'14.000""E";42032;LES AYATS;CROIX BLANCHE;42320;CELLIEU;Pylône autostable;36.0;TDF
437297;4.910277777777778;45.494166666666665;"45°29'39.000""N 4°54'37.000""E";38199;ROSIÈRE;PL DE LA PAIX LE CIMETIÈRE;38200;JARDIN;Pylône autostable;20.0;TOTEM
437472;4.341111111111111;45.44222222222222;"45°26'32.000""N 4°20'28.000""E";42223;"";R DU MARÉCHAL DE LATTRE DE TASSIGNY LOT. LES NOISETIERS;42530;SAINT GENEST LERPT;"Château d'eau - réservoir";40.0;"Commune, communauté de commune"
438145;4.323333333333333;45.425555555555555;"45°25'32.000""N 4°19'24.000""E";42189;LA PIOTIÈRE;RUE PAUL GAUGUIN;42230;ROCHE LA MOLIERE;Pylône autostable;35.7;TDF
438702;4.920833333333333;45.526666666666664;"45°31'36.000""N 4°55'15.000""E";38318;LES AURES;BAT 4;38780;PONT EVEQUE;Immeuble;36.5;Société HLM
439809;5.153333333333333;45.60888888888889;"45°36'32.000""N 5°9'12.000""E";38553;"";13-16 ESPANADE DE LA PINÈDE IMM OPAC 01;38090;VILLEFONTAINE;Immeuble;26.1;Société HLM
440019;4.844722222222222;45.55305555555555;"45°33'11.000""N 4°50'41.000""E";38487;LE PLAT DU LOUP;CHEM DE LA FORET;38200;SEYSSUEL;Pylône autostable;24.0;TDF
440629;5.018888888888889;45.411944444444444;"45°24'43.000""N 5°1'8.000""E";38324;COMBE QUARTIER;ETANG DES CHÈVRES;38270;PRIMARETTE;Tour hertzienne;111.0;TDF
440807;5.1819444444444445;45.611666666666665;"45°36'42.000""N 5°10'55.000""E";38530;"";"PL DE L'EGLISE";38090;VAULX MILIEU;Monument religieux;41.0;"Commune, communauté de commune"
440850;4.504444444444444;45.45861111111111;"45°27'31.000""N 4°30'16.000""E";42207;"";142 R PÉTIN GAUDET;42400;SAINT CHAMOND;Immeuble;32.0;Société HLM
440918;4.8036111111111115;45.375;"45°22'30.000""N 4°48'13.000""E";38298;RÉSIDENCE LE BOIS DES SOURCES;CHEMIN DES AYENCINS;38550;PEAGE DE ROUSSILLON;Bâtiment;24.0;"Copropriété, Syndic, SCI"
443747;4.775277777777777;45.401944444444446;"45°24'7.000""N 4°46'31.000""E";38425;LES GRANDES CRAIES;R NARVIK;38550;SAINT MAURICE L EXIL;Pylône autostable;24.0;TOTEM
445077;4.776666666666666;45.445;"45°26'42.000""N 4°46'36.000""E";38378;BURIEUX;CHEM DE MORDANT;38370;SAINT CLAIR DU RHONE;Pylône autostable;18.0;TDF
446335;4.2875;45.39888888888889;"45°23'56.000""N 4°17'15.000""E";42095;LE CRASSIER;R BERTHELOT;42700;FIRMINY;Pylône autostable;38.5;TDF
446910;4.872222222222222;45.52027777777778;"45°31'13.000""N 4°52'20.000""E";38544;"";18- 20 R EMILE ROMANET;38200;VIENNE;Immeuble;38.0;Société HLM
450141;4.316666666666666;45.59222222222222;"45°35'32.000""N 4°19'0.000""E";42222;"";47 R MAURICE ANDRÉE;42330;SAINT GALMIER;Immeuble;17.0;La Poste
454421;5.126388888888889;45.628055555555555;"45°37'41.000""N 5°7'35.000""E";38449;LA FESSY;"";38070;SAINT QUENTIN FALLAVIER;Pylône autostable;35.0;TDF
454431;4.4975;45.468333333333334;"45°28'6.000""N 4°29'51.000""E";42207;LES PORTES;N88;42400;SAINT CHAMOND;Pylône autostable;29.0;RTE
459387;4.5905555555555555;45.485277777777775;"45°29'7.000""N 4°35'26.000""E";42093;LA CONDAMINE;R DE LA CONDAMINE;42320;FARNAY;Pylône autostable;26.0;ATC FRANCE
459589;4.523333333333333;45.4675;"45°28'3.000""N 4°31'24.000""E";42207;"";48 R GÉNÉRAL DE GAULLE SOCIÉTÉ VEDRINE;42400;SAINT CHAMOND;Bâtiment;20.0;ORANGE
462965;4.946944444444444;45.56027777777778;"45°33'37.000""N 4°56'49.000""E";38484;LA TOUR DE MONS;"RTE DE FEYTA VERMONS ET MARCHANDE CHÂTEAU D'EAU";38200;SERPAIZE;"Château d'eau - réservoir";31.0;"Syndicat des eaux, Adduction"
463089;4.396388888888889;45.64888888888889;"45°38'56.000""N 4°23'47.000""E";69095;CAMBAJOLIBERT;"";69610;GREZIEU LE MARCHE;Pylône autostable;27.0;TOTEM
471643;4.24;45.49388888888889;"45°29'38.000""N 4°14'24.000""E";42279;"";ALLÉE DIANE DE POITIERS STATION DE POMPAGE;42170;SAINT JUST SAINT RAMBERT;Pylône autostable;27.3;TOTEM
472942;5.195555555555556;45.50888888888889;"45°30'32.000""N 5°11'44.000""E";38231;LA BROSSE;MAISON VIVIAN;38440;MEYRIEU LES ETANGS;Pylône autostable;24.0;HIVORY
477009;5.194166666666667;45.454166666666666;"45°27'15.000""N 5°11'39.000""E";38211;LE PIERRIER;"";38440;LIEUDIEU;Pylône autostable;21.0;TOTEM
478368;5.045833333333333;45.463055555555556;"45°27'47.000""N 5°2'45.000""E";38232;FURAS;"";38440;MEYSSIEZ;Pylône autostable;25.4;TOTEM
478617;4.941111111111111;45.62861111111111;"45°37'43.000""N 4°56'28.000""E";69270;"";"CLOS DE L'EGLISE";69970;CHAPONNAY;Monument religieux;23.0;"Commune, communauté de commune"
479787;4.3933333333333335;45.42333333333333;"45°25'24.000""N 4°23'36.000""E";42218;"";1 R DES DRS CHARCOTS CCAL DEUX;42000;SAINT ETIENNE;Bâtiment;22.0;"Copropriété, Syndic, SCI"
481942;4.448055555555555;45.50083333333333;"45°30'3.000""N 4°26'53.000""E";42302;CHANA-NORD;PRÈS RÉSERVOIR;42290;SORBIERS;Pylône autostable;20.0;HIVORY
486835;5.078055555555555;45.659444444444446;"45°39'34.000""N 5°4'41.000""E";38184;VERS VAULX;R DU 19 MARS 1962;38540;GRENAY;Pylône tubulaire;24.0;HIVORY
490078;4.388888888888889;45.4575;"45°27'27.000""N 4°23'20.000""E";42218;"";R JEAN SNELLA BÂTIMENT FRANCE TELECOM;42000;SAINT ETIENNE;Immeuble;18.0;ORANGE Services Fixes
491953;4.4191666666666665;45.451388888888886;"45°27'5.000""N 4°25'9.000""E";42218;"";12-13 R. GRANGENEUVE;42000;SAINT ETIENNE;Pylône tubulaire;13.0;TOTEM
493367;4.511388888888889;45.37305555555555;"45°22'23.000""N 4°30'41.000""E";42017;BOIS DE TOILE;"";42660;BESSAT;Pylône autostable;31.0;TOTEM
493540;4.514722222222222;45.47472222222222;"45°28'29.000""N 4°30'53.000""E";42207;"";15/17 R VICTOR HUGO;42400;SAINT CHAMOND;Pylône autostable;32.0;TOTEM
493916;4.858333333333333;45.541666666666664;"45°32'30.000""N 4°51'30.000""E";38544;"";2-4 R CHARLES MOREL RÉSIDENCE LE QUERCY;38200;VIENNE;Immeuble;34.0;Société HLM
499928;4.194444444444445;45.535833333333336;"45°32'9.000""N 4°11'40.000""E";42304;LA MADONE;CHEMIN DE LA FÊTE DIEU;42450;SURY LE COMTAL;"Château d'eau - réservoir";35.0;"Syndicat des eaux, Adduction"
506151;4.303055555555556;45.367777777777775;"45°22'4.000""N 4°18'11.000""E";42095;LA COMBERIE;"BOIS D'ÉTAT";42700;FIRMINY;Pylône autostable;24.0;TOTEM
507281;4.28;45.55222222222222;"45°33'8.000""N 4°16'48.000""E";42323;LES QUATRE ROUTES;R B. VILLEMAGNE PROCHE ROND-POINT N.82/D.12;42340;VEAUCHE;"Château d'eau - réservoir";34.0;"Commune, communauté de commune"
515993;4.535277777777778;45.47277777777778;"45°28'22.000""N 4°32'7.000""E";42207;LE COIN NORD;PRÈS BD DES ECHARNEAUX;42400;SAINT CHAMOND;Pylône autostable;20.0;TOTEM
516462;5.051388888888889;45.48361111111111;"45°29'1.000""N 5°3'5.000""E";38476;CHANTE MERLE;CHEM RURAL;38440;SAVAS MEPIN;Pylône autostable;12.0;TOTEM
516594;5.019166666666667;45.43;"45°25'48.000""N 5°1'9.000""E";38134;LE SOILLAT - LES GRANDS BOIS;VOIE COM N°5 - VOIE COM N°2;38122;COUR ET BUIS;Pylône autostable;35.5;HIVORY
516654;4.802222222222222;45.465555555555554;"45°27'56.000""N 4°48'8.000""E";38107;LE MARAIS;"CHEM DE L'AMBALLAN";38121;CHONAS L AMBALLAN;"Château d'eau - réservoir";26.0;"Commune, communauté de commune"
518714;4.433888888888889;45.449444444444445;"45°26'58.000""N 4°26'2.000""E";42237;LE CRÊT FOND PERDU;LE PARADIS;42650;SAINT JEAN BONNEFONDS;Pylône autostable;21.0;TDF
520458;4.178888888888888;45.63055555555555;"45°37'50.000""N 4°10'44.000""E";42038;FONTANNES;D496;42600;CHALAIN LE COMTAL;Pylône autostable;50.0;TOTEM
520949;4.231388888888889;45.644444444444446;"45°38'40.000""N 4°13'53.000""E";42149;LE LOUVOIS;1 R DE ROANNE;42210;MONTROND LES BAINS;Immeuble;19.0;"Copropriété, Syndic, SCI"
522357;4.268055555555556;45.526944444444446;"45°31'37.000""N 4°16'5.000""E";42005;LA CHAPELLE;22 R LAMARTINE;42160;ANDREZIEUX BOUTHEON;Immeuble;61.0;"Copropriété, Syndic, SCI"
523066;4.770277777777778;45.46277777777778;"45°27'46.000""N 4°46'13.000""E";69064;"";GARE SNCF DE CONDRIEU RN 86;69420;CONDRIEU;Pylône autostable;25.0;HIVORY
534125;5.151666666666666;45.62388888888889;"45°37'26.000""N 5°9'6.000""E";38537;"";CHEM DE BEAUCACHER;38290;VERPILLIERE;Pylône autostable;42.0;"Commune, communauté de commune"
536065;4.323611111111111;45.33305555555555;"45°19'59.000""N 4°19'25.000""E";43205;LA RATELIÈRE;"";43240;SAINT JUST MALMONT;Pylône autostable;33.0;TDF
545523;4.291944444444445;45.495;"45°29'42.000""N 4°17'31.000""E";42279;CRÊT DE LA TOUCHE;"CHEM LES HAUTS D' AVERNAY AVERNAY SUD";42170;SAINT JUST SAINT RAMBERT;Pylône autostable;15.0;TOTEM
546367;4.456666666666667;45.46055555555556;"45°27'38.000""N 4°27'24.000""E";42237;DOMAINE DU COLOMBIER;"";42650;SAINT JEAN BONNEFONDS;Pylône tubulaire;18.0;TOTEM
547417;4.3025;45.391666666666666;"45°23'30.000""N 4°18'9.000""E";42044;MALVAL;"";42500;CHAMBON FEUGEROLLES;Bâtiment;17.0;ORANGE Services Fixes
547543;4.433333333333334;45.38472222222222;"45°23'5.000""N 4°26'0.000""E";42172;NEYRANCHE;STATION TDF OUEST DE PLANFOY;42660;PLANFOY;Pylône autostable;28.0;TDF
547885;4.668888888888889;45.55888888888889;"45°33'32.000""N 4°40'8.000""E";42307;DARGOIRE - LE CRY;"";42800;TARTARAS;Pylône autostable;34.0;TDF
548699;4.481944444444444;45.446666666666665;"45°26'48.000""N 4°28'55.000""E";42207;LA PEROLIERE;C.R N°27;42400;SAINT CHAMOND;Pylône autostable;24.0;TOTEM
552450;4.671944444444445;45.35638888888889;"45°21'23.000""N 4°40'19.000""E";42129;LES JACQUARDS;USINE JUSTIN BRIDOU;42520;MACLAS;Bâtiment;32.0;Société Privée
556715;4.395555555555555;45.42722222222222;"45°25'38.000""N 4°23'44.000""E";42218;"";39 BD VALBENOITE;42000;SAINT ETIENNE;Immeuble;23.0;"Copropriété, Syndic, SCI"
558042;4.383611111111111;45.458888888888886;"45°27'32.000""N 4°23'1.000""E";42218;"";38 R POYLO;42000;SAINT ETIENNE;Immeuble;42.0;Société HLM
559355;4.4880555555555555;45.31861111111111;"45°19'7.000""N 4°29'17.000""E";42329;LES BLACHES;"";42220;VERSANNE;Pylône autostable;32.3;TDF
561778;4.221111111111111;45.37111111111111;"45°22'16.000""N 4°13'16.000""E";43012;"";PIED;43110;AUREC SUR LOIRE;Pylône autostable;33.4;TDF
566640;4.465;45.471111111111114;"45°28'16.000""N 4°27'54.000""E";42237;RÉSERVOIR DE MONTAUD VC 137;"";42650;SAINT JEAN BONNEFONDS;Pylône autostable;25.0;TOTEM
571067;4.6113888888888885;45.525555555555556;"45°31'32.000""N 4°36'41.000""E";42186;"";65D ET 65E R PÉTRUS RICHARME;42800;RIVE DE GIER;Immeuble;19.0;Société HLM
572135;5.0875;45.62888888888889;"45°37'44.000""N 5°5'15.000""E";38449;BOSSERAND;R DES PERDRIX PROCHE LIGNE HAUTE TENSION;38070;SAINT QUENTIN FALLAVIER;Pylône autostable;23.0;ATC FRANCE
573464;3.971388888888889;45.352777777777774;"45°21'10.000""N 3°58'17.000""E";43212;LES GRENOUILLOUX;CHEM RURAL;43500;SAINT PAL DE CHALENCON;Pylône autostable;30.0;HIVORY
574910;4.406666666666666;45.43805555555556;"45°26'17.000""N 4°24'24.000""E";42218;"";"16 R DE L' ISÉRABLE";42000;SAINT ETIENNE;Immeuble;29.5;"Copropriété, Syndic, SCI"
580649;4.693611111111111;45.593333333333334;"45°35'36.000""N 4°41'37.000""E";69179;LES ECHIRAYES;ROUTE DE ST ANDEOL LE CHÂTEAU À MORNANT (D488E) STADE;69700;BEAUVALLON;Pylône tubulaire;25.0;TOTEM
582220;4.8133333333333335;45.405833333333334;"45°24'21.000""N 4°48'48.000""E";38344;AIRE DU ROUSSILLON;A DU SOLEIL A.7 - N.7 PK 14;38150;ROUSSILLON;Pylône autostable;25.0;TOTEM
583157;4.785833333333334;45.623333333333335;"45°37'24.000""N 4°47'9.000""E";69133;COMBARINEL;D 117 E;69390;MILLERY;Pylône autostable;32.0;TOTEM
583570;5.091944444444445;45.471944444444446;"45°28'19.000""N 5°5'31.000""E";38555;MONT GAUTHIER;CHEM DE CAMPAGNE DU MONT GAUTHIER ACCÈS PAR VC12 DE VILLENEUVE DE MARC À MEYSSIÈS;38440;VILLENEUVE DE MARC;Pylône autostable;30.0;HIVORY
585212;4.996388888888889;45.388333333333335;"45°23'18.000""N 4°59'47.000""E";38240;LALLEMANE;"";38270;MOISSIEU SUR DOLON;Pylône autostable;24.6;TOTEM
591292;4.131111111111111;45.407222222222224;"45°24'26.000""N 4°7'52.000""E";42001;PASCAL;RTE DÉPARTEMENTALE 3;42380;ABOEN;Pylône autostable;31.0;TOTEM
591347;5.082777777777777;45.51972222222222;"45°31'11.000""N 5°4'58.000""E";38035;LE BRICHET;CHEM DES GRILLES - D518;38440;BEAUVOIR DE MARC;Pylône autostable;21.7;HIVORY
593754;5.014444444444444;45.4775;"45°28'39.000""N 5°0'52.000""E";38160;NOILLY;V COMMUNALE N° 16;38780;EYZIN PINET;Pylône autostable;31.0;TDF
595549;4.2363888888888885;45.345;"45°20'42.000""N 4°14'11.000""E";43153;PIFOY;PRÈS D.45;43330;PONT SALOMON;Pylône autostable;31.0;TDF
599088;4.410833333333334;45.4175;"45°25'3.000""N 4°24'39.000""E";42218;"";12 BD ALEXANDRE DE FRAISSINETTE;42000;SAINT ETIENNE;Immeuble;37.0;Société HLM
607705;5.0825;45.54083333333333;"45°32'27.000""N 5°4'57.000""E";38035;FROMENTAUX;CHEM RURAL;38440;BEAUVOIR DE MARC;Pylône autostable;25.0;ATC FRANCE
609108;4.448611111111111;45.32527777777778;"45°19'31.000""N 4°26'55.000""E";42224;LES CHOMEYS;RÉSERVOIR;42660;SAINT GENEST MALIFAUX;Pylône autostable;18.0;TOTEM
613467;4.809722222222222;45.478611111111114;"45°28'43.000""N 4°48'35.000""E";38336;"MAS DE L'AMBALLAN";CHEM RURAL;38121;REVENTIN VAUGRIS;Pylône autostable;21.0;TOTEM
613884;4.955;45.33;"45°19'48.000""N 4°57'18.000""E";38198;PATIÈRES;CHEM DES PATIÈRES;38270;JARCIEU;Pylône autostable;20.0;TOTEM
619940;4.364722222222222;45.53666666666667;"45°32'12.000""N 4°21'53.000""E";42234;SALETTE;"";42570;SAINT HEAND;Pylône autostable;20.0;TOTEM
621883;4.3966666666666665;45.6425;"45°38'33.000""N 4°23'48.000""E";42059;"";"R DE LYON CHÂTEAU D'EAU";42140;CHAZELLES SUR LYON;"Château d'eau - réservoir";26.2;"Syndicat des eaux, Adduction"
624487;5.119722222222222;45.32805555555556;"45°19'41.000""N 5°7'11.000""E";38032;"L'ATTAFFEY";"CHEM DU CHÂTEAU D'EAU";38270;BEAUFORT;"Château d'eau - réservoir";35.0;"Syndicat des eaux, Adduction"
644164;4.114722222222222;45.573055555555555;"45°34'23.000""N 4°6'53.000""E";42285;LES TOURETTES HAUTES;"";42610;SAINT ROMAIN LE PUY;Pylône autostable;15.0;TOTEM
649026;4.421944444444445;45.39833333333333;"45°23'54.000""N 4°25'19.000""E";42172;FISSEMAGNE;CHEM RURAL;42660;PLANFOY;Pylône autostable;20.0;TOTEM
651326;4.620833333333334;45.53333333333333;"45°32'0.000""N 4°37'15.000""E";42186;MONTJOINT - PLAISANCE;CH DE COMBELIBERT;42800;RIVE DE GIER;Pylône autostable;30.0;TDF
651359;4.371666666666667;45.4375;"45°26'15.000""N 4°22'18.000""E";42218;"";R EMILE DESCHANEL;42000;SAINT ETIENNE;Pylône autostable;27.8;TDF
651414;4.598055555555556;45.536944444444444;"45°32'13.000""N 4°35'53.000""E";42259;LE MUNAT;RTE DU MUNAT;42800;SAINT MARTIN LA PLAINE;Pylône autostable;17.5;TDF
656181;3.761111111111111;45.62027777777778;"45°37'13.000""N 3°45'40.000""E";63179;LA HALLE;"";63990;JOB;Pylône autostable;29.5;TDF
657288;5.048055555555556;45.49777777777778;"45°29'52.000""N 5°2'53.000""E";38238;LES CRÉES;D 53B;38440;MOIDIEU DETOURBE;Pylône autostable;24.0;TOTEM
660803;4.264444444444444;45.364444444444445;"45°21'52.000""N 4°15'52.000""E";43184;VILLENEUVE;R DES PERDRIX  Z.A. VELAY AUVERGNE;43330;SAINT FERREOL D AUROURE;Pylône autostable;34.0;TOTEM
664346;5.093333333333334;45.42305555555556;"45°25'23.000""N 5°5'36.000""E";38406;LE REVOLLET;"";38122;SAINT JULIEN DE L HERMS;Pylône autostable;40.0;Conseil Départemental
664397;4.584444444444444;45.431666666666665;"45°25'54.000""N 4°35'4.000""E";42085;MAUCHAMP;"";42740;DOIZIEUX;Pylône autostable;25.0;TDF
668492;4.183611111111111;45.40277777777778;"45°24'10.000""N 4°11'1.000""E";42262;"";RUE DES HOSPICES BOURG;42240;SAINT MAURICE EN GOURGOIS;Pylône autostable;18.0;TOTEM
679423;4.385833333333333;45.43055555555556;"45°25'50.000""N 4°23'9.000""E";42218;BEAUBRUN;20 R FRANKLIN RES RPA - BEL HORIZON;42000;SAINT ETIENNE;Immeuble;21.0;Société HLM
683829;5.140555555555555;45.50111111111111;"45°30'4.000""N 5°8'26.000""E";38399;"";12 R HECTOR BERLIOZ;38440;SAINT JEAN DE BOURNAY;Pylône autostable;30.0;TOTEM
684921;5.111666666666666;45.56944444444444;"45°34'10.000""N 5°6'42.000""E";38389;LA FROIDE;"";38790;SAINT GEORGES D ESPERANCHE;Pylône autostable;30.2;HIVORY
687018;4.752777777777778;45.58305555555555;"45°34'59.000""N 4°45'10.000""E";69091;LES 2 VALLÉES;PLAINE DU GIER CCAL CARREFOUR;69700;GIVORS;Pylône autostable;25.0;HIVORY
688339;5.0536111111111115;45.32527777777778;"45°19'31.000""N 5°3'13.000""E";38034;LES FROMENTEAUX;V.C. N°16 CHANTABOT;38270;BEAUREPAIRE;Pylône autostable;30.0;TOTEM
693470;4.377222222222223;45.416111111111114;"45°24'58.000""N 4°22'38.000""E";42218;"";91 R FLORENT EVRARD - SCR;42000;SAINT ETIENNE;Pylône autostable;15.0;TOTEM
697815;4.421944444444445;45.4275;"45°25'39.000""N 4°25'19.000""E";42218;"";69 R JEAN PAROT RÉSIDENCE LES LAURIERS;42000;SAINT ETIENNE;Immeuble;30.0;Société HLM
697822;4.405;45.4275;"45°25'39.000""N 4°24'18.000""E";42218;"";ALLÉE DES CYCLES 35 R PONTCHARDIER;42000;SAINT ETIENNE;Immeuble;36.0;"Copropriété, Syndic, SCI"
697843;4.415;45.43666666666667;"45°26'12.000""N 4°24'54.000""E";42218;MONTHIEU;1C R NARVICK LES CITÉS JARDINS;42000;SAINT ETIENNE;Immeuble;43.0;Société HLM
697858;4.413888888888889;45.45916666666667;"45°27'33.000""N 4°24'50.000""E";42218;"";ALLÉE ROGER JACQUEMOT PARC DES SPORTS DE MÉONS;42000;SAINT ETIENNE;Pylône autostable;13.0;TOTEM
697868;4.365833333333334;45.43;"45°25'48.000""N 4°21'57.000""E";42218;LE PETIT BOURBON;R EMILE DESCHANEL PYLÔNE RADIO ESPÉRANCE;42000;SAINT ETIENNE;Pylône autostable;27.0;Titulaire programme Radio/TV
697871;4.395277777777777;45.43944444444445;"45°26'22.000""N 4°23'43.000""E";42218;"";63 R DE LA RÉPUBLIQUE;42000;SAINT ETIENNE;Immeuble;32.0;Société HLM
697912;4.3822222222222225;45.4425;"45°26'33.000""N 4°22'56.000""E";42218;JACQUART;R PIERRE BARALLON 2 R BENOÎT MALON;42000;SAINT ETIENNE;Immeuble;26.0;"Copropriété, Syndic, SCI"
697918;4.400833333333333;45.41722222222222;"45°25'2.000""N 4°24'3.000""E";42218;LE REZ;51 AV. DE ROCHETAILLÉE R PIERRE COPEL;42000;SAINT ETIENNE;Immeuble;22.0;"Copropriété, Syndic, SCI"
697926;4.41;45.42305555555556;"45°25'23.000""N 4°24'36.000""E";42218;"";101 COURS FAURIEL POLYCLINIQUE DE BEAULIEU;42000;SAINT ETIENNE;Bâtiment;23.0;"Copropriété, Syndic, SCI"
697930;4.422777777777778;45.44444444444444;"45°26'40.000""N 4°25'22.000""E";42218;"";29 R EMILE ZOLA;42000;SAINT ETIENNE;Bâtiment;9.0;"Copropriété, Syndic, SCI"
698444;4.386666666666667;45.41;"45°24'36.000""N 4°23'12.000""E";42218;"";12 R BOSSUET;42000;SAINT ETIENNE;Immeuble;18.0;"Copropriété, Syndic, SCI"
698448;4.4;45.41277777777778;"45°24'46.000""N 4°24'0.000""E";42218;"";14 R BONNASSIEUX;42000;SAINT ETIENNE;Immeuble;32.0;Société HLM
698463;4.394444444444445;45.41888888888889;"45°25'8.000""N 4°23'40.000""E";42218;BELLEVUE;14 R BERAUD;42000;SAINT ETIENNE;Immeuble;30.0;Société HLM
700016;4.788888888888889;45.636944444444445;"45°38'13.000""N 4°47'20.000""E";69133;"";"CHEM DU PETIT VIOLET CHÂTEAU D'EAU";69390;MILLERY;"Château d'eau - réservoir";31.0;"Syndicat des eaux, Adduction"
701667;4.385277777777778;45.44694444444445;"45°26'49.000""N 4°23'7.000""E";42218;"";GARE SNCF DE ST ETIENNE CARNOT;42000;SAINT ETIENNE;Bâtiment;23.0;SNCF Réseau
701708;4.3975;45.45666666666666;"45°27'24.000""N 4°23'51.000""E";42218;"";24 R DE LA ROBOTIQUE;42000;SAINT ETIENNE;Bâtiment;25.0;Société Privée
701719;4.392777777777778;45.431666666666665;"45°25'54.000""N 4°23'34.000""E";42218;"";12 R. ANTOINE DURAFOUR;42000;SAINT ETIENNE;Immeuble;21.0;"Copropriété, Syndic, SCI"
707628;3.85;45.33972222222222;"45°20'23.000""N 3°51'0.000""E";43080;CHAMP FAUGIER;"";43500;CRAPONNE SUR ARZON;Pylône autostable;26.0;TOTEM
714148;4.908333333333333;45.629444444444445;"45°37'46.000""N 4°54'30.000""E";69281;"";CROISEMENT DES CHEMS COMMMUNAUX N°2 ET 7;69970;MARENNES;Pylône autostable;29.0;TOTEM
714601;4.8774999999999995;45.635;"45°38'6.000""N 4°52'39.000""E";69291;"";ROND POINT R GUSTAVE EIFFEL;69360;SAINT SYMPHORIEN D OZON;Pylône tubulaire;20.0;TOTEM
725950;4.325833333333334;45.45638888888889;"45°27'23.000""N 4°19'33.000""E";42223;RIVOIRE;ALLÉE DES BOIS RTE DU PIALON;42530;SAINT GENEST LERPT;Pylône autostable;27.0;TOTEM
729829;4.926111111111111;45.67138888888889;"45°40'17.000""N 4°55'34.000""E";69273;"";69 R MARCEL MERIEUX;69960;CORBAS;Pylône tubulaire;25.5;HIVORY
731015;4.441666666666666;45.55166666666667;"45°33'6.000""N 4°26'30.000""E";42096;AUX SEPT PINS;"CHÂTEAU D'EAU";42140;FONTANES;"Château d'eau - réservoir";22.0;"Syndicat des eaux, Adduction"
732784;5.049444444444444;45.581944444444446;"45°34'55.000""N 5°2'58.000""E";38288;LES CABANES;RD 75;38780;OYTIER SAINT OBLAS;Pylône autostable;29.5;TOTEM
739251;4.879166666666666;45.62555555555556;"45°37'32.000""N 4°52'45.000""E";69295;LES MOURLIETTES;CHEM DE BEYRON;69360;SIMANDRES;Pylône autostable;31.8;HIVORY
740736;4.810833333333333;45.32138888888889;"45°19'17.000""N 4°48'39.000""E";38072;LES ETISES;PÉAGE A7 PK 23.80;38150;CHANAS;Pylône autostable;50.0;"Sociétés d'Autoroutes"
740807;3.9466666666666668;45.41166666666667;"45°24'42.000""N 3°56'48.000""E";42318;LE TRÉMOLET OUEST;"";42550;USSON EN FOREZ;Pylône autostable;36.2;TOTEM
768442;4.369166666666667;45.566944444444445;"45°34'1.000""N 4°22'9.000""E";42010;LA CREUSE;STADE COMMUNAL;42330;AVEIZIEUX;Pylône tubulaire;25.0;TOTEM
771847;4.983888888888889;45.32805555555556;"45°19'41.000""N 4°59'2.000""E";26155;BRULEFER EST;"";26210;LAPEYROUSE MORNAY;Pylône autostable;32.0;HIVORY
776852;4.624444444444444;45.666111111111114;"45°39'58.000""N 4°37'28.000""E";69170;LA PIERRE À CHAUX;BOIS LE GRAND BACHA PRÈS DU CHEM DE ST JACQUES DE COMPOSTELLE;69510;RONTALON;Pylône autostable;18.0;TOTEM
778397;4.513333333333334;45.40638888888889;"45°24'23.000""N 4°30'48.000""E";42322;LA SURCHETTE;"";42131;VALLA EN GIER;Pylône autostable;28.0;ATC FRANCE
778791;4.428333333333334;45.64694444444444;"45°38'49.000""N 4°25'42.000""E";69155;CHARBONNIÈRE;CHEM DE POMEYS AUX ORMES SENTIER FORESTIER;69590;POMEYS;Pylône autostable;30.0;TOTEM
778800;4.945833333333333;45.65138888888889;"45°39'5.000""N 4°56'45.000""E";69283;LES CHAINES;R SALVADOR ALLENDÉ;69780;MIONS;Pylône autostable;32.8;ORANGE
780699;5.066666666666666;45.67333333333333;"45°40'24.000""N 5°4'0.000""E";69288;CHANTE ALOUETTE;"";69720;SAINT LAURENT DE MURE;Pylône autostable;21.0;TOTEM
783192;4.519166666666667;45.635555555555555;"45°38'8.000""N 4°31'9.000""E";69110;LE GIMIO;"";69590;LARAJASSE;Pylône autostable;12.0;TOTEM
783588;4.9847222222222225;45.64694444444444;"45°38'49.000""N 4°59'5.000""E";69289;LES DAMES;"BASSINS DE RÉTENTION ET D'INFILTRATION DES EAUX PL";69780;SAINT PIERRE DE CHANDIEU;Pylône autostable;28.0;HIVORY
783874;5.065;45.63055555555555;"45°37'50.000""N 5°3'54.000""E";38189;"";R DU REPOS;38540;HEYRIEUX;Pylône autostable;29.0;TOTEM
784617;5.085833333333333;45.67027777777778;"45°40'13.000""N 5°5'9.000""E";38184;LES BLÂCHES;"";38540;GRENAY;Pylône autostable;24.0;TOTEM
784632;4.876944444444445;45.528888888888886;"45°31'44.000""N 4°52'37.000""E";38544;"";21 R JACQUARD;38200;VIENNE;Immeuble;29.0;Société HLM
784690;4.83;45.492777777777775;"45°29'34.000""N 4°49'48.000""E";38336;"";Z.I. VAUGRIS - D.4;38121;REVENTIN VAUGRIS;Pylône autostable;20.0;TOTEM
785079;4.7972222222222225;45.57888888888889;"45°34'44.000""N 4°47'50.000""E";38087;CHAMP DU ROY;CHEM DES GOULES;38670;CHASSE SUR RHONE;Pylône autostable;30.0;RTE
785081;4.875;45.52472222222222;"45°31'29.000""N 4°52'30.000""E";38544;"";3 R DE POMPIGNAN;38200;VIENNE;Immeuble;24.0;Société Privée
785115;5.131666666666667;45.641666666666666;"45°38'30.000""N 5°7'54.000""E";38537;"";R DE PICARDIE CHAPEAU ROUGE;38290;VERPILLIERE;Bâtiment;20.0;ORANGE Services Fixes
785139;5.1425;45.61833333333333;"45°37'6.000""N 5°8'33.000""E";38553;"";R EMILE ROMANET GARAGE PEUGEOT;38090;VILLEFONTAINE;Pylône tubulaire;24.0;TOTEM
785150;4.5488888888888885;45.5175;"45°31'3.000""N 4°32'56.000""E";42032;LE CRÊT DE CHARME;"";42320;CELLIEU;Pylône autostable;26.0;TOTEM
786259;4.305555555555555;45.49444444444445;"45°29'40.000""N 4°18'20.000""E";42097;LA BIELLE;"";42480;FOUILLOUSE;Mât métallique;10.0;"Etat, Ministère"
786268;4.5616666666666665;45.50555555555555;"45°30'20.000""N 4°33'42.000""E";42103;LE CHÊNE COMBÉRIGOL;PUITS PINET;42320;GRAND CROIX;Pylône autostable;25.3;TOTEM
786289;4.5247222222222225;45.49111111111111;"45°29'28.000""N 4°31'29.000""E";42207;"";"RTE DU CRÊT D'OEILLET Z.I. STELYTEC";42400;SAINT CHAMOND;Pylône autostable;26.0;ORANGE
786303;4.255833333333333;45.61694444444444;"45°37'1.000""N 4°15'21.000""E";42081;LE MOULIN;MINOTERIE MODERNE S.A.;42330;CUZIEU;Pylône autostable;24.0;TOTEM
786309;4.064722222222223;45.431111111111115;"45°25'52.000""N 4°3'53.000""E";42204;LE GRAVOUX;CHEM DES PÉPINIÈRES;42380;SAINT BONNET LE CHATEAU;Pylône autostable;26.0;TOTEM
786812;4.333333333333333;45.64;"45°38'24.000""N 4°20'0.000""E";42013;LE BÉRON;"";42210;BELLEGARDE EN FOREZ;Pylône autostable;25.0;ORANGE
786857;4.052777777777778;45.61194444444445;"45°36'43.000""N 4°3'10.000""E";42147;"";11 R FERNAND LÉGER;42600;MONTBRISON;Immeuble;40.0;Société HLM
786863;4.442777777777778;45.44861111111111;"45°26'55.000""N 4°26'34.000""E";42237;"";16 R J.F. REVOLLIER;42650;SAINT JEAN BONNEFONDS;Immeuble;21.0;Société HLM
786865;4.0377777777777775;45.50555555555555;"45°30'20.000""N 4°2'16.000""E";42240;LE BÉALET;PYLÔNE FT;42560;SAINT JEAN SOLEYMIEUX;Pylône autostable;30.0;TOTEM
786898;4.379166666666666;45.405833333333334;"45°24'21.000""N 4°22'45.000""E";42183;LA VIONNE;64-66 R GAMBETTA;42150;RICAMARIE;Immeuble;17.0;Société HLM
786912;4.379722222222222;45.465833333333336;"45°27'57.000""N 4°22'47.000""E";42275;"";6 PL MASSENET IMM GILLIER;42270;SAINT PRIEST EN JAREZ;Immeuble;34.0;"Copropriété, Syndic, SCI"
786916;4.599722222222223;45.556111111111115;"45°33'22.000""N 4°35'59.000""E";42259;"";CHEM DE LA COMBE;42800;SAINT MARTIN LA PLAINE;Pylône autostable;12.0;TOTEM
786918;4.292222222222223;45.63861111111111;"45°38'19.000""N 4°17'32.000""E";42013;LA BASSE VANGE;PRÉS D10;42210;BELLEGARDE EN FOREZ;Pylône autostable;24.0;HIVORY
786920;4.429722222222222;45.48083333333334;"45°28'51.000""N 4°25'47.000""E";42305;"";7 R MICHELET COPRO LES COLOMBIÈRES;42350;TALAUDIERE;Immeuble;22.0;"Copropriété, Syndic, SCI"
786932;4.5825;45.543055555555554;"45°32'35.000""N 4°34'57.000""E";42259;BEAULIEU;CHEM RURAL;42800;SAINT MARTIN LA PLAINE;Pylône autostable;13.0;TOTEM
786936;4.364722222222222;45.405277777777776;"45°24'19.000""N 4°21'53.000""E";42183;"";6 AV MAURICE THOREZ;42150;RICAMARIE;Immeuble;20.0;ORANGE
786940;4.348333333333334;45.48305555555555;"45°28'59.000""N 4°20'54.000""E";42092;GRANGENEUVE;RN 82;42580;ETRAT;Pylône tubulaire;21.0;TOTEM
786952;4.285833333333334;45.562777777777775;"45°33'46.000""N 4°17'9.000""E";42323;LA CROIX RAPEAU;R DU 19 MARS 1962 RÉSIDENCE PACCARD BÂTIMENT N°3;42340;VEAUCHE;Immeuble;16.0;Société HLM
787011;4.197222222222222;45.37555555555556;"45°22'32.000""N 4°11'50.000""E";43012;PASSE - VITE;RTE DE NUROL;43110;AUREC SUR LOIRE;Pylône autostable;29.4;TOTEM
787019;4.315833333333333;45.5;"45°30'0.000""N 4°18'57.000""E";42097;"";9 PL JOVIN BOUCHARD MAISON DE RETRAITE P. MEUNIER;42480;FOUILLOUSE;Immeuble;21.6;Etablissement de soins
787021;4.525;45.47694444444444;"45°28'37.000""N 4°31'30.000""E";42207;"";6 R JULES VERNE;42400;SAINT CHAMOND;Immeuble;18.0;"Copropriété, Syndic, SCI"
787023;4.290277777777778;45.384166666666665;"45°23'3.000""N 4°17'25.000""E";42095;"";5 CHEM DE LA PATE;42700;FIRMINY;Immeuble;19.0;Société HLM
787025;4.282777777777778;45.39;"45°23'24.000""N 4°16'58.000""E";42095;"";9 PL CHARLES DE GAULLE;42700;FIRMINY;Immeuble;26.0;Société HLM
787051;4.856944444444444;45.50833333333333;"45°30'30.000""N 4°51'25.000""E";38544;"";9 R DES FRÈRES GRELLET;38200;VIENNE;Immeuble;17.8;Société HLM
794065;5.106388888888889;45.5875;"45°35'15.000""N 5°6'23.000""E";38144;"";R DE COMBEROUSSE PONT RFF;38790;DIEMOZ;Mât métallique;6.0;ORANGE
794083;5.106388888888889;45.5875;"45°35'15.000""N 5°6'23.000""E";38144;"";R DE COMBEROUSSE PONT RFF;38790;DIEMOZ;Mât métallique;6.0;ORANGE
797837;4.04;45.58888888888889;"45°35'20.000""N 4°2'24.000""E";42087;"";"EGLISE D'ECOTAY";42600;ECOTAY L OLME;Monument religieux;21.0;"Commune, communauté de commune"
807929;3.9025;45.44277777777778;"45°26'34.000""N 3°54'9.000""E";63147;LES PENDERIES;"";63840;EGLISOLLES;Pylône autostable;45.0;TDF
810506;4.854166666666667;45.63027777777778;"45°37'49.000""N 4°51'15.000""E";69291;"";4 R JEAN ODET IMM A;69360;SAINT SYMPHORIEN D OZON;Immeuble;19.0;"Copropriété, Syndic, SCI"
810789;4.9255555555555555;45.655277777777776;"45°39'19.000""N 4°55'32.000""E";69270;CHAPOTIN;R MARCEL MÉRIEUX;69970;CHAPONNAY;Pylône autostable;24.0;TOTEM
810805;4.786388888888888;45.65833333333333;"45°39'30.000""N 4°47'11.000""E";69046;REMIÈRE;RTE DU BAS PREVAS;69390;CHARLY;Pylône autostable;15.0;TOTEM
810843;4.851944444444444;45.60611111111111;"45°36'22.000""N 4°51'7.000""E";69272;"";LES BONNIÈRES STADE DE LA PLAINE ROUTE DE MARENNES;69360;COMMUNAY;Pylône autostable;20.0;TOTEM
810861;5.0183333333333335;45.65694444444444;"45°39'25.000""N 5°1'6.000""E";69289;LES QUINIONIÈRES;STATION DE POMPAGE DU PLAN;69780;SAINT PIERRE DE CHANDIEU;Pylône autostable;19.0;TOTEM
810885;4.676111111111111;45.543055555555554;"45°32'35.000""N 4°40'34.000""E";69252;LES PÈRES;CHEM DU BRUNET;69420;TREVES;Pylône autostable;12.0;TOTEM
811616;4.731388888888889;45.581944444444446;"45°34'55.000""N 4°43'53.000""E";69091;CHARBONNIÈRES;CHEM RURAL N° 7 DE LA CHARBONNIÈRE D.488;69700;GIVORS;Pylône autostable;18.0;TOTEM
811641;4.803888888888888;45.562222222222225;"45°33'44.000""N 4°48'14.000""E";69118;"";51 R DU CTRE;69700;LOIRE SUR RHONE;Immeuble;18.0;Société HLM
811673;4.895555555555555;45.66166666666667;"45°39'42.000""N 4°53'44.000""E";69273;"";IMPASSE JACQUES PREVERT;69960;CORBAS;Immeuble;25.0;Société HLM
811685;4.633333333333333;45.674166666666665;"45°40'27.000""N 4°38'0.000""E";69249;LES ECHÈDES;PRÈS D.11;69510;THURINS;Pylône autostable;31.0;TOTEM
811775;4.932777777777778;45.63722222222222;"45°38'14.000""N 4°55'58.000""E";69270;"";STADE GILLES LAFORET;69970;CHAPONNAY;Pylône tubulaire;30.0;TOTEM
811781;4.804166666666667;45.58972222222222;"45°35'23.000""N 4°48'15.000""E";69297;STATTIERES;D 36;69360;TERNAY;Pylône autostable;26.0;ORANGE
811793;4.671944444444445;45.62083333333333;"45°37'15.000""N 4°40'19.000""E";69141;"";16 AV DE VERDUN;69440;MORNANT;Pylône tubulaire;20.0;TOTEM
811800;4.7875;45.609722222222224;"45°36'35.000""N 4°47'15.000""E";69096;"";20 R ANDRÉ SABATIER;69520;GRIGNY;Immeuble;19.0;Société HLM
811830;4.695833333333333;45.56638888888889;"45°33'59.000""N 4°41'45.000""E";69236;LE GRAND BUT;DÉPARTEMENT 103E;69700;SAINT ROMAIN EN GIER;Pylône autostable;31.0;TOTEM
811850;4.819166666666667;45.602222222222224;"45°36'8.000""N 4°49'9.000""E";69297;"";CHEM BOUCHERATTES PYLONE FT;69360;TERNAY;Pylône autostable;21.0;TOTEM
811859;4.837777777777777;45.63444444444445;"45°38'4.000""N 4°50'16.000""E";69296;"";CHEM DU STADE COTE BAYARD STADE DE FOOT COMMUNAL;69360;SOLAIZE;Pylône tubulaire;16.0;ORANGE
812455;4.821111111111112;45.67305555555556;"45°40'23.000""N 4°49'16.000""E";69100;"";5 R DE LA VISINA;69540;IRIGNY;Bâtiment;13.0;Particulier
812459;4.460555555555556;45.61972222222222;"45°37'11.000""N 4°27'38.000""E";69062;LES PRÉBENDES;CHEM RURAL N°2;69590;COISE;Pylône autostable;23.0;HIVORY
818446;4.999444444444444;45.60611111111111;"45°36'22.000""N 4°59'58.000""E";38519;MIRAUD;ROUTE DU CORBET;38540;VALENCIN;"Château d'eau - réservoir";23.0;"Commune, communauté de commune"
821999;3.8444444444444446;45.526944444444446;"45°31'37.000""N 3°50'40.000""E";63173;LES PRADEAUX;D 67A;63600;GRANDRIF;Tour hertzienne;58.6;TDF
848742;4.988611111111111;45.66555555555556;"45°39'56.000""N 4°59'19.000""E";69298;MONTRACUL;"CHEM FORESTIER  PRÈS D318 RTE D'HEYRIEUX";69780;TOUSSIEU;Pylône autostable;47.0;RTE
850094;5.022222222222222;45.618611111111115;"45°37'7.000""N 5°1'20.000""E";69289;LES MOLLIÈRES OUEST;CHEM DE CAMPAGNE;69780;SAINT PIERRE DE CHANDIEU;Pylône autostable;30.0;TOTEM
862383;4.066666666666666;45.57222222222222;"45°34'20.000""N 4°4'0.000""E";42122;LES LUCHÈRES;"";42600;LEZIGNEUX;Pylône autostable;33.0;TDF
863924;5.0075;45.364444444444445;"45°21'52.000""N 5°0'27.000""E";38240;LES VARILLES EST;CHEMIN DE MOISSIEU;38270;MOISSIEU SUR DOLON;Pylône autostable;30.3;HIVORY
880855;4.84;45.594166666666666;"45°35'39.000""N 4°50'24.000""E";69272;SALLA NORD;R DES PERRIERES CHEM DE CAMPAGNE PYLÔNE RTE;69360;COMMUNAY;Pylône autostable;36.0;RTE
915414;4.651111111111112;45.53944444444444;"45°32'22.000""N 4°39'4.000""E";42053;CENNA;ROUTE FRANÇOIS MOUTON;42800;CHATEAUNEUF;Pylône autostable;14.0;RTE
938985;4.258611111111112;45.4125;"45°24'45.000""N 4°15'31.000""E";42316;LE DORIER;CHEM COMMUNAL;42240;UNIEUX;Pylône autostable;10.0;"Commune, communauté de commune"
957673;5.172777777777778;45.588055555555556;"45°35'17.000""N 5°10'22.000""E";38339;LASSIEUX;CHEM RURAL;38090;ROCHE;Pylône autostable;30.0;TOTEM
988704;4.845;45.66444444444444;"45°39'52.000""N 4°50'42.000""E";69276;"";STADE JEAN BOUIN 5 RUE JEAN BOUIN;69320;FEYZIN;Pylône tubulaire;30.0;TOTEM
989727;4.848055555555556;45.6725;"45°40'21.000""N 4°50'53.000""E";69276;"";CHEMIN DEPARTEMENTAL 12;69320;FEYZIN;Pylône autostable;25.0;TOTEM
1049582;4.403611111111111;45.46138888888889;"45°27'41.000""N 4°24'13.000""E";42218;"";"27, RUE G.DELORY";42000;SAINT ETIENNE;Mât métallique;11.0;Société Privée
1054528;4.8677777777777775;45.51305555555555;"45°30'47.000""N 4°52'4.000""E";38544;LA GLOIRE DE DIEU;21 CHEMIN DE LA GLOIRE DE DIEU;38200;VIENNE;Pylône autostable;7.0;TOTEM
1087211;4.770277777777778;45.609722222222224;"45°36'35.000""N 4°46'13.000""E";69096;"";10 AVENUE CHANTELOT AB MARQUAGE;69520;GRIGNY;Pylône autostable;18.0;TOTEM
1132785;5.1033333333333335;45.66166666666667;"45°39'42.000""N 5°6'12.000""E";38449;"";LE GRAND LUZAIS CHEMIN DE BONCE;38070;SAINT QUENTIN FALLAVIER;Pylône tubulaire;18.0;TOTEM
1273114;4.401388888888889;45.44083333333333;"45°26'27.000""N 4°24'5.000""E";42218;LE PORT SEC;45 RUE DE LA MONTAT;42000;SAINT ETIENNE;Immeuble;43.0;"Copropriété, Syndic, SCI"
1316665;4.216666666666667;45.52194444444444;"45°31'19.000""N 4°13'0.000""E";42022;"";14 AVENUE DE SAINT RAMBERT;42160;BONSON;Immeuble;13.3;Particulier
1327341;4.39;45.44138888888889;"45°26'29.000""N 4°23'24.000""E";42218;"";"17 RUE RAISIN R DE L'ATTACHE AUX BOEUFS";42000;SAINT ETIENNE;Immeuble;30.9;"Copropriété, Syndic, SCI"
1339549;4.773333333333333;45.589444444444446;"45°35'22.000""N 4°46'24.000""E";69091;"";2 R MAURICE THOREZ;69700;GIVORS;Immeuble;43.2;Société HLM
1397106;5.083333333333333;45.651666666666664;"45°39'6.000""N 5°5'0.000""E";38184;LES BRICHES;CHARBONNIER;38540;GRENAY;Pylône autostable;25.0;TOTEM
1425961;4.353888888888889;45.475;"45°28'30.000""N 4°21'14.000""E";42330;LE CURNIEUX;RUE DE LA GARE;42390;VILLARS;Pylône autostable;28.0;CELLNEX
1442994;5.110833333333334;45.65138888888889;"45°39'5.000""N 5°6'39.000""E";38449;"";RUE DES PAPILLONS;38070;SAINT QUENTIN FALLAVIER;Pylône autostable;30.0;TOTEM
1465902;4.352222222222222;45.45611111111111;"45°27'22.000""N 4°21'8.000""E";42330;"";LE MARTHOUREY;42390;VILLARS;Pylône autostable;32.0;ATC FRANCE
1498466;4.785833333333334;45.32472222222222;"45°19'29.000""N 4°47'9.000""E";38349;"";EN AVEY NORD;38550;SABLONS;Pylône autostable;30.0;ATC FRANCE
1500090;4.408611111111111;45.45527777777778;"45°27'19.000""N 4°24'31.000""E";42218;"";16 RUE NECKER;42230;SAINT ETIENNE;Pylône tubulaire;15.0;TOTEM
1517921;4.2075;45.60666666666667;"45°36'24.000""N 4°12'27.000""E";42108;CHANINATS;AIRE DE CHANTE-PERDRIX A 72;42210;HOPITAL LE GRAND;Pylône autostable;40.0;"Sociétés d'Autoroutes"
1522608;4.814444444444445;45.65277777777778;"45°39'10.000""N 4°48'52.000""E";69260;"";5 R DU PÉRONNET;69390;VERNAISON;Immeuble;22.0;Société HLM
1537367;5.0325;45.44444444444444;"45°26'40.000""N 5°1'57.000""E";38134;CHEZ PICHOT;COMBE GRIFFET;38122;COUR ET BUIS;Pylône autostable;18.0;TOTEM
1559623;4.263888888888889;45.50277777777778;"45°30'10.000""N 4°15'50.000""E";42279;"";"PLACE JEANNE D'ARC";42170;SAINT JUST SAINT RAMBERT;Monument religieux;33.2;"Commune, communauté de commune"
1563916;4.772222222222222;45.60111111111111;"45°36'4.000""N 4°46'20.000""E";69091;"";R AUGUSTE DELAUNE DELAUNE;69700;GIVORS;Pylône tubulaire;25.0;TOTEM
1572618;4.895555555555555;45.50805555555556;"45°30'29.000""N 4°53'44.000""E";38199;CHEZ VIDAL;CHEMIN DU RESERVOIR;38200;JARDIN;Pylône autostable;22.0;ON TOWER FRANCE
1597531;4.381666666666667;45.4825;"45°28'57.000""N 4°22'54.000""E";42092;"";9 ALLÉE DE LA LICHÈRE;42580;ETRAT;Immeuble;15.8;Particulier
1612370;3.938888888888889;45.4775;"45°28'39.000""N 3°56'20.000""E";63104;LE CARAY;CHEM RURAL N° 67;63660;CHAULME;Pylône autostable;24.0;TOTEM
1628793;4.437777777777778;45.433055555555555;"45°25'59.000""N 4°26'16.000""E";42218;"";7 R ANATOLE FRANCE;42000;SAINT ETIENNE;Immeuble;23.6;"Copropriété, Syndic, SCI"
1639223;4.865833333333334;45.673611111111114;"45°40'25.000""N 4°51'57.000""E";69276;"";CHEM DU FORT FORT DE FEYZIN;69320;FEYZIN;Pylône autostable;42.0;TOTEM
1642080;4.153888888888889;45.67166666666667;"45°40'18.000""N 4°9'14.000""E";42130;LES VARENNES;D6 - STATION DE POMPAGE;42600;MAGNEUX HAUTE RIVE;Pylône autostable;34.0;TOTEM
1644657;5.005;45.39861111111111;"45°23'55.000""N 5°0'18.000""E";38240;LE PINET;"";38270;MOISSIEU SUR DOLON;Pylône autostable;20.0;TOTEM
1646014;3.915277777777778;45.56027777777778;"45°33'37.000""N 3°54'55.000""E";63319;CHARIAT;PRÈS D261 SITE TDF;63660;SAINT ANTHEME;Mât béton;15.0;TDF
1650718;4.975;45.570277777777775;"45°34'13.000""N 4°58'30.000""E";38408;COMBE PIGNARD;CHEM DU GACHET;38540;SAINT JUST CHALEYSSIN;Pylône autostable;21.3;TOTEM
1670029;4.693888888888889;45.42138888888889;"45°25'17.000""N 4°41'38.000""E";42168;"";"R DE L'EUROPE PARC D'ACTIVITÉS LE PLANIL";42410;PELUSSIN;Pylône autostable;23.0;TOTEM
1681139;4.2347222222222225;45.50944444444445;"45°30'34.000""N 4°14'5.000""E";42279;"";"CHEM RURAL DE LA LANDE, LA LANDE";42170;SAINT JUST SAINT RAMBERT;Pylône autostable;30.7;TOTEM
1681476;4.270555555555555;45.39111111111111;"45°23'28.000""N 4°16'14.000""E";42099;"";"RUE DE L'ONDAINE ALLÉE ISIDORE GALANDRA";42490;FRAISSES;Bâtiment;19.4;Société Privée
1701079;4.082222222222223;45.5975;"45°35'51.000""N 4°4'56.000""E";42147;"";"4, RUE DE LAPLATTE";42600;MONTBRISON;Pylône autostable;26.0;TOTEM
1705178;4.806666666666667;45.349444444444444;"45°20'58.000""N 4°48'24.000""E";38468;CHAMP ROLLAND;8 R DU RENIVET;38150;SALAISE SUR SANNE;Pylône autostable;27.5;TOTEM
1705636;4.787222222222223;45.39111111111111;"45°23'28.000""N 4°47'14.000""E";38425;LA RIVOIRE - GIVRAY;CHEM AGRICOLE;38550;SAINT MAURICE L EXIL;Pylône autostable;22.0;TOTEM
1708591;4.415555555555556;45.44166666666667;"45°26'30.000""N 4°24'56.000""E";42218;"";145 RUE DES ALLIÉS;42000;SAINT ETIENNE;Bâtiment;18.4;Particulier
1711319;4.400555555555556;45.45194444444444;"45°27'7.000""N 4°24'2.000""E";42218;"";"51, RUE DU SOLEIL";42000;SAINT ETIENNE;Bâtiment;17.6;"Copropriété, Syndic, SCI"
1723798;4.393055555555556;45.41583333333333;"45°24'57.000""N 4°23'35.000""E";42218;"";"12, PLACE BELLEVUE";42000;SAINT ETIENNE;Bâtiment;37.9;"Copropriété, Syndic, SCI"
1726063;4.364722222222222;45.44861111111111;"45°26'55.000""N 4°21'53.000""E";42218;"";"89, RUE DE CHAVASSIEUX RÉSIDENCE EHPAD";42000;SAINT ETIENNE;Bâtiment;18.3;Etablissement de soins
1726326;4.3133333333333335;45.533055555555556;"45°31'59.000""N 4°18'48.000""E";42005;MILLIEUX;ZAC DE MILLIEUX;42160;ANDREZIEUX BOUTHEON;Pylône autostable;25.0;TOTEM
1746627;4.963611111111112;45.6625;"45°39'45.000""N 4°57'49.000""E";69283;"";ROUTE DE TOUSSIEU;69780;MIONS;Pylône tubulaire;28.0;ON TOWER FRANCE
1779322;4.140833333333333;45.47527777777778;"45°28'31.000""N 4°8'27.000""E";42256;LA ROCHE;"";42680;SAINT MARCELLIN EN FOREZ;Pylône autostable;26.0;TOTEM
1779400;4.338611111111111;45.60444444444445;"45°36'16.000""N 4°20'19.000""E";42222;LA BÉRINCHE;RÉSERVOIR DE LA BÉRINCHE;42330;SAINT GALMIER;Pylône autostable;24.0;TOTEM
1812230;3.9955555555555557;45.45861111111111;"45°27'31.000""N 3°59'44.000""E";42146;"";PLACE DE LA MAIRIE EGLISE DE MONTARCHER;42380;MONTARCHER;Monument religieux;13.0;"Commune, communauté de commune"
1813737;5.1002777777777775;45.54833333333333;"45°32'54.000""N 5°6'1.000""E";38081;"";RTE DE LA FORÊT;38790;CHARANTONNAY;Pylône autostable;26.4;TOTEM
1817974;4.016666666666667;45.37416666666667;"45°22'27.000""N 4°1'0.000""E";42142;"L'OUCHETTE";EGLISE DE LEIGNEC;42380;MERLE LEIGNEC;Monument religieux;24.0;"Commune, communauté de commune"
1827082;4.4225;45.42194444444444;"45°25'19.000""N 4°25'21.000""E";42218;"";7 RUE COLETTE;42000;SAINT ETIENNE;Bâtiment;45.0;Société HLM
1885830;4.381944444444445;45.437222222222225;"45°26'14.000""N 4°22'55.000""E";42218;"";27 RUE TARANTAISE;42000;SAINT ETIENNE;Immeuble;29.5;Société HLM
1898195;4.404722222222222;45.408611111111114;"45°24'31.000""N 4°24'17.000""E";42218;"";ALLÉE D. LEPRINCE-RINGUET PYLÔNE RTE;42000;SAINT ETIENNE;Pylône autostable;47.7;RTE
1915350;4.727222222222222;45.610277777777775;"45°36'37.000""N 4°43'38.000""E";69179;LARZELIER;ACCES PAR D83 APRES CIMETIRES DE CHASSIGNY;69700;BEAUVALLON;Pylône tubulaire;22.5;TOTEM
1925486;4.388333333333334;45.440555555555555;"45°26'26.000""N 4°23'18.000""E";42218;"";8 R DE LODI;42000;SAINT ETIENNE;Immeuble;27.0;"Copropriété, Syndic, SCI"
1955807;4.744722222222222;45.62638888888889;"45°37'35.000""N 4°44'41.000""E";69136;LA COMBE;CHEMIN DU CIMETIÈRE;69700;MONTAGNY;Pylône autostable;12.0;TOTEM
1961471;4.396111111111111;45.413333333333334;"45°24'48.000""N 4°23'46.000""E";42218;"";2-2BIS RUE DU GUIZAY;42000;SAINT ETIENNE;Bâtiment;34.6;Conseil Régional
1978206;4.9125;45.67055555555555;"45°40'14.000""N 4°54'45.000""E";69273;"";"RUE DE SAVOIE PARC D'ACTIVITÉ";69960;CORBAS;Pylône tubulaire;15.0;TOTEM
2002497;4.771111111111111;45.639722222222225;"45°38'23.000""N 4°46'16.000""E";69133;BOIS DU RAVE;R DE FLIGNON;69390;MILLERY;Pylône autostable;35.0;RTE
2022146;5.159722222222222;45.53527777777778;"45°32'7.000""N 5°9'35.000""E";38015;GUINIÈRE;RTE DE ST JEAN DE BOURNAY D 126;38440;ARTAS;Pylône autostable;30.0;TDF
2033150;4.535277777777778;45.48166666666667;"45°28'54.000""N 4°32'7.000""E";42110;"";CHEMIN DE LA MALADIÈRE;42152;HORME;Pylône autostable;12.0;TOTEM
2033603;4.357222222222222;45.39833333333333;"45°23'54.000""N 4°21'26.000""E";42183;"";43 RUE JEAN JAURÈS;42150;RICAMARIE;Bâtiment;20.0;Particulier
2033735;5.169444444444444;45.620555555555555;"45°37'14.000""N 5°10'10.000""E";38530;"";"CHEM DES DONCHERES PARC D'ACTIVITÉ MUSSIAT EST";38090;VAULX MILIEU;Pylône tubulaire;18.0;TOTEM
2038476;4.391944444444444;45.4775;"45°28'39.000""N 4°23'31.000""E";42311;"";CHE DU CRÊT;42580;TOUR EN JAREZ;Pylône autostable;24.0;BOUYGUES
2043528;4.332222222222223;45.401666666666664;"45°24'6.000""N 4°19'56.000""E";42044;ANGELIN;VC N°114;42500;CHAMBON FEUGEROLLES;Pylône autostable;27.0;Société Privée
2058290;4.92;45.391666666666666;"45°23'30.000""N 4°55'12.000""E";38077;"";CHEMIN DU CLOS;38150;CHAPELLE DE SURIEU;Pylône autostable;37.0;Conseil Départemental
2078759;4.396944444444444;45.44638888888889;"45°26'47.000""N 4°23'49.000""E";42218;"";52 BD JULES JANIN;42000;SAINT ETIENNE;Immeuble;34.7;Société HLM
2086040;3.942222222222222;45.62166666666667;"45°37'18.000""N 3°56'32.000""E";42188;LA PETITE MARECHE;"";42600;ROCHE;Pylône autostable;36.3;Conseil Régional
2146876;4.781388888888889;45.675;"45°40'30.000""N 4°46'53.000""E";69204;"";50 AV CHANOINE CARTELLIER;69230;SAINT GENIS LAVAL;Immeuble;14.0;"Copropriété, Syndic, SCI"
2154436;4.22;45.323055555555555;"45°19'23.000""N 4°13'12.000""E";43058;LA FORET;"";43120;CHAPELLE D AUREC;Pylône autostable;31.0;ATC FRANCE
2155013;4.091111111111111;45.60138888888889;"45°36'5.000""N 4°5'28.000""E";42147;"";"RUE DE L'AGRICULTURE SOCIÉTÉ BECKER";42600;MONTBRISON;Pylône autostable;20.4;ATC FRANCE
2175350;4.660277777777778;45.58972222222222;"45°35'23.000""N 4°39'37.000""E";69228;BELLEVUE;D 2;69440;CHABANIERE;Pylône autostable;18.0;TOTEM
2175372;4.72;45.54527777777778;"45°32'43.000""N 4°43'12.000""E";69080;MAUPERTUIS;ROUTE DE JANNORAY;69700;ECHALAS;Pylône autostable;30.0;ATC FRANCE
2180972;4.5575;45.65222222222222;"45°39'8.000""N 4°33'27.000""E";69227;HAMEAU DES PLAINES;IMPRIMERIE IML;69850;SAINT MARTIN EN HAUT;Pylône autostable;21.0;TOTEM
2186569;4.646111111111111;45.48888888888889;"45°29'20.000""N 4°38'46.000""E";42210;CHAMP DU PEU;"";42800;SAINTE CROIX EN JAREZ;Pylône autostable;30.0;TDF
2186576;4.580277777777778;45.52055555555555;"45°31'14.000""N 4°34'49.000""E";42225;LA CROIX DE LA CHAIRE;"CHEMIN DU CREST DE L'ISLE";42800;GENILAC;Pylône autostable;29.3;TOTEM
2199186;4.285555555555556;45.473055555555554;"45°28'23.000""N 4°17'8.000""E";42279;"PIC D'ETRAT";"";42170;SAINT JUST SAINT RAMBERT;Pylône autostable;9.0;ATC FRANCE
2199194;4.161944444444444;45.51277777777778;"45°30'46.000""N 4°9'43.000""E";42256;ROZET;"";42680;SAINT MARCELLIN EN FOREZ;Pylône autostable;24.0;TOTEM
2211425;4.364444444444445;45.478611111111114;"45°28'43.000""N 4°21'52.000""E";42275;"";79-81 AV ALBERT RAIMOND MAISON DE RETRAITE LE CLOS CHAMPIROL;42270;SAINT PRIEST EN JAREZ;Bâtiment;17.0;Société Privée
2225583;4.270833333333333;45.450833333333335;"45°27'3.000""N 4°16'15.000""E";42218;LES CONDAMINES;RUE DU BRÉAT;42000;SAINT ETIENNE;Pylône autostable;15.0;TOTEM
2228537;4.906666666666666;45.53194444444444;"45°31'55.000""N 4°54'24.000""E";38318;"";36 CHEMIN  GILBERT OLLIER;38780;PONT EVEQUE;Bâtiment;27.0;"Copropriété, Syndic, SCI"
2234175;4.683611111111111;45.556666666666665;"45°33'24.000""N 4°41'1.000""E";42083;LA ROCHE TROUÉE;"IMPASSE DE L'ECLUSE";42800;DARGOIRE;Pylône autostable;12.0;TOTEM
2235482;3.863888888888889;45.57138888888889;"45°34'17.000""N 3°51'50.000""E";63319;JASSERIES DE VIALLEVIEILLE;STATION - MONTAGNE DE VIALLEVEVIEILLE;63660;SAINT ANTHEME;Pylône autostable;32.3;BOUYGUES
2246424;4.290277777777778;45.51916666666666;"45°31'9.000""N 4°17'25.000""E";42097;LE BAS-ROLLET;ALLEE DES PERROTINS D498;42480;FOUILLOUSE;Pylône autostable;13.0;ATC FRANCE
2263202;3.992777777777778;45.61888888888889;"45°37'8.000""N 3°59'34.000""E";42089;ARCY;LE PIC DE LA ROUE;42600;ESSERTINES EN CHATELNEUF;Pylône autostable;15.0;TOTEM
2282949;3.785;45.659444444444446;"45°39'34.000""N 3°47'6.000""E";63179;LES GRANGES;"";63990;JOB;Pylône autostable;36.0;SFR
2289934;4.8149999999999995;45.3875;"45°23'15.000""N 4°48'54.000""E";38344;EN LOUZE;CHEM DES MARCHES;38150;ROUSSILLON;"Château d'eau - réservoir";29.0;"Syndicat des eaux, Adduction"
2298813;4.942777777777778;45.431666666666665;"45°25'54.000""N 4°56'34.000""E";38244;"";100 CHEMIN DES HAIES;38122;MONSTEROUX MILIEU;Pylône autostable;24.0;SFR
2300620;3.9430555555555555;45.59583333333333;"45°35'45.000""N 3°56'35.000""E";42121;"";JEAN FAURE;42600;LERIGNEUX;Pylône autostable;20.8;BOUYGUES
2301811;4.886111111111111;45.444722222222225;"45°26'41.000""N 4°53'10.000""E";38131;HAMEAU DE ST MAMERT LE HAUT;"";38138;COTES D AREY;Pylône autostable;30.0;TOTEM
2301827;4.819444444444445;45.42527777777778;"45°25'31.000""N 4°49'10.000""E";38019;LA TOUR;"2 W RUE DE L'ARGENTIÈRE À COTÉ DU CIMETIÈRE";38550;AUBERIVES SUR VAREZE;Pylône autostable;22.0;TOTEM
2301831;4.703055555555555;45.65888888888889;"45°39'32.000""N 4°42'11.000""E";69148;RIVOIRE;ROUTE DE RIVOIRE;69530;ORLIENAS;Pylône autostable;19.0;ORANGE
2301839;4.695277777777778;45.6425;"45°38'33.000""N 4°41'43.000""E";69219;CROIZETTE;ROUTE DE PRAPIN RD105- CIMETIÈRE;69440;SAINT LAURENT D AGNY;Pylône autostable;20.0;TOTEM
2308380;4.804166666666667;45.63055555555555;"45°37'50.000""N 4°48'15.000""E";69133;"";CHEMIN DE LA TOUR DE MILLERY;69390;MILLERY;Pylône autostable;25.0;SNCF
2310216;4.958333333333333;45.511944444444445;"45°30'43.000""N 4°57'30.000""E";38157;"";AVENUE PORTE DES ALPES - D502;38780;ESTRABLIN;Pylône autostable;24.0;ATC FRANCE
2319833;4.2775;45.51;"45°30'36.000""N 4°16'39.000""E";42279;LA GARE;RUE SAINT ANTHÈME;42170;SAINT JUST SAINT RAMBERT;Pylône autostable;36.0;ATC FRANCE
2324677;4.7411111111111115;45.51722222222222;"45°31'2.000""N 4°44'28.000""E";69097;"";CHEMIN DE LA MADONE BARONIERE NORD;69420;HAIES;Pylône autostable;24.2;BOUYGUES
2331143;3.9702777777777776;45.534166666666664;"45°32'3.000""N 3°58'13.000""E";42107;BOIS DU FAURE;ROUTE LE ROYET;42560;GUMIERES;Pylône autostable;33.0;BOUYGUES
2343839;5.043611111111111;45.460277777777776;"45°27'37.000""N 5°2'37.000""E";38232;"";IMPASSE DU PINAY;38440;MEYSSIEZ;Pylône tubulaire;11.0;SNCF
2381292;4.36;45.448055555555555;"45°26'53.000""N 4°21'36.000""E";42218;"";49A R NOËL BLACET 1 R CHARLES LONGUET;42000;SAINT ETIENNE;Immeuble;27.0;Société HLM
2386590;3.995277777777778;45.54055555555556;"45°32'26.000""N 3°59'43.000""E";42058;"";ROUTE DE FORTUNIERE;42560;CHAZELLES SUR LAVIEU;Pylône autostable;32.9;BOUYGUES
2390147;4.851111111111111;45.47694444444444;"45°28'37.000""N 4°51'4.000""E";38336;"";CHEMIN DES CHASSEURS;38121;REVENTIN VAUGRIS;Pylône autostable;27.0;CELLNEX
2451685;4.198611111111111;45.57833333333333;"45°34'42.000""N 4°11'55.000""E";42108;GRANGENEUVE;"";42210;HOPITAL LE GRAND;Pylône autostable;35.0;TOTEM
2462819;4.258333333333334;45.64194444444445;"45°38'31.000""N 4°15'30.000""E";42200;LES VARENNES;"";42210;SAINT ANDRE LE PUY;Pylône autostable;30.0;TOTEM
2464333;4.1258333333333335;45.555277777777775;"45°33'19.000""N 4°7'33.000""E";42285;"";6 PLACE JB CHAVASSIEU EGLISE;42610;SAINT ROMAIN LE PUY;Monument religieux;25.1;"Commune, communauté de commune"
2479983;4.522777777777778;45.596666666666664;"45°35'48.000""N 4°31'22.000""E";69110;LE CRÊT;LOT. LES MARTINIÈRES  D 97;69590;LARAJASSE;Pylône autostable;18.0;ATC FRANCE
2490554;4.626944444444445;45.52972222222222;"45°31'47.000""N 4°37'37.000""E";42186;"";1 CHE DE LA LIMARRIERE;42800;RIVE DE GIER;Tunnel;12.1;SNCF
2495892;4.465833333333333;45.435833333333335;"45°26'9.000""N 4°27'57.000""E";42207;LA GAMOTTE;CHEMIN DE PANGUET;42400;SAINT CHAMOND;Pylône tubulaire;27.0;CELLNEX
2509893;4.878333333333334;45.47388888888889;"45°28'26.000""N 4°52'42.000""E";38131;LE BISSEY;"";38138;COTES D AREY;Pylône autostable;39.0;FREE-MOBILE
2511072;4.904166666666667;45.41222222222222;"45°24'44.000""N 4°54'15.000""E";38017;MAURE;CHEMIN DES MAURE;38150;ASSIEU;Pylône autostable;24.0;ATC FRANCE
2512762;5.142222222222222;45.57388888888889;"45°34'26.000""N 5°8'32.000""E";38339;MONTCHATAIN;IMPASSE DES COMBETTES;38090;ROCHE;"Château d'eau - réservoir";24.0;"Syndicat des eaux, Adduction"
2516292;4.603888888888889;45.62583333333333;"45°37'33.000""N 4°36'14.000""E";69180;LE RAMPEAU;CHEMIN DE GAGNE BONNET;69440;SAINT ANDRE LA COTE;Pylône autostable;26.7;PHOENIX FRANCE INFRASTRUCTURES
2522147;5.135833333333333;45.37166666666667;"45°22'18.000""N 5°8'9.000""E";38291;LES BLACHES;"";38260;PAJAY;Pylône autostable;39.0;TDF
2529400;5.038055555555555;45.5175;"45°31'3.000""N 5°2'17.000""E";38238;GARENNES ET RIVIERES;ROUTE DU VERNEA;38440;MOIDIEU DETOURBE;Pylône autostable;38.0;"Etat, Ministère"
2532685;4.811388888888889;45.67055555555555;"45°40'14.000""N 4°48'41.000""E";69100;CHAMPVILLARD;33 CHEMIN DE CHAMPVILLARD;69540;IRIGNY;Pylône autostable;35.0;TDF
2577930;3.9769444444444444;45.426944444444445;"45°25'37.000""N 3°58'37.000""E";42006;POMMEROL;PROCHE ROUTE DU CROZET;42550;APINAC;Pylône autostable;32.0;PHOENIX FRANCE INFRASTRUCTURES
2585954;4.054166666666666;45.63527777777778;"45°38'7.000""N 4°3'15.000""E";42046;TOURNEL;RTE DE MONTBRISSON TOURNEL;42600;CHAMPDIEU;Pylône autostable;24.1;ORANGE
2586852;4.029722222222222;45.60166666666667;"45°36'6.000""N 4°1'47.000""E";42012;LE PIC DE MONTFROMENT;"";42600;BARD;Pylône autostable;18.0;ATC FRANCE
2593973;4.408611111111111;45.43138888888889;"45°25'53.000""N 4°24'31.000""E";42218;"";RUE PEYRET LAILLER 24 IMMEUBLE LE MARWIL;42000;SAINT ETIENNE;Immeuble;22.0;"Copropriété, Syndic, SCI"
2605227;5.157777777777778;45.389722222222225;"45°23'23.000""N 5°9'28.000""E";38161;"";CHEMIN DE BRUVE;38260;FARAMANS;Pylône autostable;39.0;FREE-MOBILE
2610235;5.157777777777778;45.475833333333334;"45°28'33.000""N 5°9'28.000""E";38399;PETITS MONTS;"";38440;SAINT JEAN DE BOURNAY;Pylône autostable;30.0;ORANGE
2611554;4.369166666666667;45.39111111111111;"45°23'28.000""N 4°22'9.000""E";42044;"";CHEM DES PLANCHES;42500;CHAMBON FEUGEROLLES;Pylône autostable;27.0;PHOENIX FRANCE INFRASTRUCTURES
2616551;4.424166666666666;45.44222222222222;"45°26'32.000""N 4°25'27.000""E";42218;"";14 R MARC CHARRAS;42000;SAINT ETIENNE;Tunnel;12.5;ORANGE
2621275;4.8902777777777775;45.33222222222222;"45°19'56.000""N 4°53'25.000""E";38051;"";141 LA VIEILLE ROUTE;38150;BOUGE CHAMBALUD;Pylône autostable;24.0;ORANGE
2628556;5.0505555555555555;45.3475;"45°20'51.000""N 5°3'2.000""E";38034;LE BELLAY;CHEMIN DE REVEL;38270;BEAUREPAIRE;Pylône autostable;36.0;TOTEM
2633682;4.920277777777778;45.577222222222225;"45°34'38.000""N 4°55'13.000""E";38558;"";CHEMIN DU SALIN;38200;VILLETTE DE VIENNE;Pylône autostable;30.0;TDF
2643446;5.003611111111111;45.57083333333333;"45°34'15.000""N 5°0'13.000""E";38288;LA GARENNE;CHEMIN DU PANORAMA;38780;OYTIER SAINT OBLAS;Pylône autostable;39.0;TOTEM
2663071;4.554166666666667;45.485;"45°29'6.000""N 4°33'15.000""E";42271;"";1430 RTE DE RICHORE;42740;SAINT PAUL EN JAREZ;Pylône autostable;26.0;CELLNEX
2671230;5.054166666666666;45.66027777777778;"45°39'37.000""N 5°3'15.000""E";38184;LA GARE;ROUTE DÉPARTEMENTALE D153;38540;GRENAY;Pylône autostable;30.0;ATC FRANCE
2671895;4.003333333333333;45.57555555555555;"45°34'32.000""N 4°0'12.000""E";42328;LE MAS;CHEMIN VIANNEY;42600;VERRIERES EN FOREZ;Pylône autostable;39.0;FREE-MOBILE
2677411;4.455555555555556;45.3925;"45°23'33.000""N 4°27'20.000""E";42218;"L'AIRELLE";CHEMIN RURAL DEPARTEMENTALE 8;42100;SAINT ETIENNE;Pylône tubulaire;19.0;PHOENIX FRANCE INFRASTRUCTURES
2677413;4.408333333333333;45.49027777777778;"45°29'25.000""N 4°24'30.000""E";42311;LES GOUTTES;"CHEMIN D'EXPLOITATION PROCHE IMPASSE DES FONTALLIS";42580;TOUR EN JAREZ;Pylône autostable;26.7;PHOENIX FRANCE INFRASTRUCTURES
2689957;4.655833333333334;45.635555555555555;"45°38'8.000""N 4°39'21.000""E";69141;MARSOLAS;CHEMIN DU MOULIN PERRET;69440;MORNANT;Pylône autostable;33.0;ON TOWER FRANCE
2690685;4.235833333333334;45.66694444444445;"45°40'1.000""N 4°14'9.000""E";42135;LES PATUREAUX;ROUTE DU CHATELARD;42210;MARCLOPT;Pylône autostable;33.0;ORANGE
2691953;3.904166666666667;45.538333333333334;"45°32'18.000""N 3°54'15.000""E";63319;"L'AIGUILLON";"";63660;SAINT ANTHEME;Pylône autostable;30.0;ATC FRANCE
2693617;4.549166666666666;45.565555555555555;"45°33'56.000""N 4°32'57.000""E";42283;LA CORDELIÈRE;"CHE DE L'OISEAU";42800;SAINT ROMAIN EN JAREZ;Pylône autostable;30.0;ON TOWER FRANCE
2699767;4.506944444444445;45.54333333333334;"45°32'36.000""N 4°30'25.000""E";42320;LE REY;ROUTE DE ST ROMAIN;42320;VALFLEURY;Pylône autostable;45.0;ON TOWER FRANCE
2710559;4.737777777777778;45.41166666666667;"45°24'42.000""N 4°44'16.000""E";42056;LES PRAIRIES;STADE DE FOOT;42410;CHAVANAY;Pylône autostable;24.0;ATC FRANCE
2715408;4.671111111111111;45.51861111111111;"45°31'7.000""N 4°40'16.000""E";69119;LES FONTACHES;PROCHE RUE DES SAGNES;69420;LONGES;Pylône autostable;27.5;PHOENIX FRANCE INFRASTRUCTURES
2724992;4.6066666666666665;45.646388888888886;"45°38'47.000""N 4°36'24.000""E";69170;LE GIRARDIN;RTE DE ST-MARTIN;69510;RONTALON;Pylône autostable;15.3;PHOENIX FRANCE INFRASTRUCTURES
2814201;4.818888888888889;45.51611111111111;"45°30'58.000""N 4°49'8.000""E";69193;CRET MUNY;D138 ROUTE DU GRISARD;69560;SAINT CYR SUR LE RHONE;Pylône autostable;30.0;ORANGE
2825177;4.073333333333333;45.60666666666667;"45°36'24.000""N 4°4'24.000""E";42147;"";43 RUE DE LA REPUBLIQUE;42600;MONTBRISON;Immeuble;54.0;ORANGE
2831551;4.879166666666666;45.62555555555556;"45°37'32.000""N 4°52'45.000""E";69295;LES MOURLIETTES;CHEMIN DE BEYRON;69360;SIMANDRES;Pylône autostable;30.0;ATC FRANCE
2841493;4.391111111111111;45.46138888888889;"45°27'41.000""N 4°23'28.000""E";42218;"";14 RUE PAUL ET PIERRE GUICHARD STADE GEOFFROY-GUICHARD TRIBUNES NORD ET EST;42000;SAINT ETIENNE;Bâtiment;33.0;Société Privée
2841495;4.389444444444444;45.460277777777776;"45°27'37.000""N 4°23'22.000""E";42218;"";14 RUE PAUL ET PIERRE GUICHARD STADE GEOFFROY-GUICHARD  TRIBUNNES SUD ET OUEST;42000;SAINT ETIENNE;Bâtiment;33.0;Société Privée
2841523;4.110833333333334;45.36472222222222;"45°21'53.000""N 4°6'39.000""E";42192;SAGNE MARIA;ROUTE DU VELAY SAGNE MARIA;42380;ROZIER COTES D AUREC;Pylône autostable;24.0;ATC FRANCE
2849300;4.3933333333333335;45.43666666666667;"45°26'12.000""N 4°23'36.000""E";42218;"";12 RUE LIEUTENANT MORIN AUTOCOM FOURIER;42000;SAINT ETIENNE;Bâtiment;48.0;TOTEM
2864298;4.851666666666667;45.33111111111111;"45°19'52.000""N 4°51'6.000""E";38003;GOLLEY;120 CHEMIN DU MOULIN;38150;AGNIN;Pylône autostable;27.0;ATC FRANCE
2873096;4.760277777777778;45.670833333333334;"45°40'15.000""N 4°45'37.000""E";69027;"";24 R PAUL BOVIER LAPIERRE;69530;BRIGNAIS;Pylône tubulaire;25.0;TOTEM
