Numéro de mesure;Longitude;Latitude;Position;Insee;Adresse;Complément;Code postal;Commune;Date de mesure;Mesure réalisée;Rapport;Conformité de la mesure;Niveau global;"Type d'environnement";laboratoire
169070;5.26018;43.435135;"43°26'6.486""N 5°15'36.648""E";13117;Avenue Denis Padovani;"";13127;VITROLLES;01/10/2021;En intérieur;RPUB_142447.pdf;Oui;1.28;Locaux professionnels non accessibles au public;EXEM
169083;4.9879;43.416949;"43°25'1.016""N 4°59'16.440""E";13077;Allée des Genêts;"";13110;PORT DE BOUC;30/09/2021;En extérieur;RPUB_142465.pdf;Oui;0.36;"Lieu d'habitation";EXEM
169241;5.222886;43.410197;"43°24'36.709""N 5°13'22.390""E";13054;Avenue Lacanau;"";13700;MARIGNANE;15/10/2021;En extérieur;RPUB_142608.pdf;Oui;3.34;Rue / Route / Parking;EXEM
169248;5.413927;43.26641;"43°15'59.076""N 5°24'50.137""E";13209;Allée des Cyclamens;"";13009;MARSEILLE 9E ARRONDISSEMENT;18/10/2021;En intérieur;RPUB_142606.pdf;Oui;0.02;"Lieu d'habitation";EXEM
169441;5.576246;43.287909;"43°17'16.472""N 5°34'34.486""E";13005;Avenue de Verdun;"";13400;AUBAGNE;15/10/2021;En extérieur;RPUB_142810.pdf;Oui;1.48;Rue / Route / Parking;EXEM
169450;4.980262;43.401103;"43°24'3.971""N 4°58'48.943""E";13077;Avenue Maurice Thorez;"";13110;PORT DE BOUC;20/10/2021;En extérieur;RPUB_142826.pdf;Oui;0.86;Rue / Route / Parking;EXEM
169493;5.454669;43.292214;"43°17'31.970""N 5°27'16.808""E";13211;Autoroute A50;"";13011;MARSEILLE 11E ARRONDISSEMENT;20/10/2021;En extérieur;RPUB_142829.pdf;Oui;2.21;Rue / Route / Parking;EXEM
169555;5.471592;43.286081;"43°17'9.892""N 5°28'17.731""E";13211;Boulevard de Saint-Marcel;"";13011;MARSEILLE 11E ARRONDISSEMENT;20/10/2021;En extérieur;RPUB_142917.pdf;Oui;0.89;Rue / Route / Parking;EXEM
169565;5.245512;43.396324;"43°23'46.766""N 5°14'43.843""E";13043;Avenue des Valampes;"";13180;GIGNAC LA NERTHE;20/10/2021;En extérieur;RPUB_142920.pdf;Oui;0.86;Rue / Route / Parking;EXEM
169572;5.383069;43.306607;"43°18'23.785""N 5°22'59.048""E";13203;Boulevard National;"";13003;MARSEILLE 3E ARRONDISSEMENT;20/10/2021;En extérieur;RPUB_142916.pdf;Oui;1.33;Rue / Route / Parking;EXEM
169580;5.421362;43.33985;"43°20'23.460""N 5°25'16.903""E";13213;Chemin de Château Gombert;"";13013;MARSEILLE 13E ARRONDISSEMENT;27/10/2021;En extérieur;RPUB_142949.pdf;Oui;0.63;Rue / Route / Parking;EXEM
169617;5.698643;43.18304;"43°10'58.944""N 5°41'55.115""E";83112;Chemin des Pradeaux;"";83270;SAINT CYR SUR MER;29/10/2021;En extérieur;RPUB_142964.pdf;Oui;0.06;"Lieu d'habitation";EXEM
169673;5.431746;43.305769;"43°18'20.768""N 5°25'54.286""E";13212;Avenue de Kalliste;"";13012;MARSEILLE 12E ARRONDISSEMENT;30/09/2021;En extérieur;RPUB_143016.pdf;Oui;1.8;Rue / Route / Parking;EXEM
169738;5.460108;43.297481;"43°17'50.932""N 5°27'36.389""E";13211;Boulevard des Libérateurs;"";13011;MARSEILLE 11E ARRONDISSEMENT;30/09/2021;En extérieur;RPUB_143015.pdf;Oui;0.63;Rue / Route / Parking;EXEM
169793;5.477371;43.314133;"43°18'50.879""N 5°28'38.536""E";13212;Traverse de la Salette;"";13012;MARSEILLE 12E ARRONDISSEMENT;20/10/2021;En extérieur;RPUB_143188.pdf;Oui;1.43;Locaux professionnels non accessibles au public;EXEM
169964;5.378018;43.29621;"43°17'46.356""N 5°22'40.865""E";13201;Cours Saint-Louis;"";13001;MARSEILLE 1ER ARRONDISSEMENT;29/10/2021;En extérieur;RPUB_143331.pdf;Oui;0.92;Rue / Route / Parking;EXEM
169968;5.399161;43.281423;"43°16'53.123""N 5°23'56.980""E";13210;Boulevard Rabatau Daniel Matalon;"";13010;MARSEILLE 10E ARRONDISSEMENT;25/10/2021;En extérieur;RPUB_143333.pdf;Oui;1.78;Rue / Route / Parking;EXEM
170007;5.654119;43.192868;"43°11'34.325""N 5°39'14.828""E";13028;Chemin des Plaines Marines;"";13600;CIOTAT;27/10/2021;En extérieur;RPUB_143330.pdf;Oui;1.29;Rue / Route / Parking;EXEM
170015;5.359117;43.328937;"43°19'44.173""N 5°21'32.821""E";13202;Chemin de Madrague-Ville;"";13002;MARSEILLE 2E ARRONDISSEMENT;29/10/2021;En extérieur;RPUB_143332.pdf;Oui;2.13;Rue / Route / Parking;EXEM
170017;5.410554;43.321307;"43°19'16.705""N 5°24'37.994""E";13213;Rue Alphonse Daudet;"";13013;MARSEILLE 13E ARRONDISSEMENT;29/10/2021;En extérieur;RPUB_143329.pdf;Oui;1.04;Rue / Route / Parking;EXEM
170167;5.419749;43.341343;"43°20'28.835""N 5°25'11.096""E";13213;Chemin de Chateau Gombert;"";13013;MARSEILLE 13E ARRONDISSEMENT;15/11/2021;En intérieur;RPUB_143527.pdf;Oui;0.64;"Etablissement ouvert au public (Ecole, Et Soins, Gare…)";EXEM
170185;5.390969;43.246241;"43°14'46.468""N 5°23'27.488""E";13208;Avenue André Zenatti;"";13008;MARSEILLE 8E ARRONDISSEMENT;10/11/2021;En intérieur;RPUB_143521.pdf;Oui;0.91;"Etablissement ouvert au public (Ecole, Et Soins, Gare…)";EXEM
170190;5.433834;43.3305;"43°19'49.800""N 5°26'1.802""E";13213;Allée des Chardonnerets;"";13013;MARSEILLE 13E ARRONDISSEMENT;16/11/2021;En intérieur;RPUB_143522.pdf;Oui;0.43;"Etablissement ouvert au public (Ecole, Et Soins, Gare…)";EXEM
170192;5.393766;43.255617;"43°15'20.221""N 5°23'37.558""E";13208;Avenue de Mazargues;"";13008;MARSEILLE 8E ARRONDISSEMENT;09/11/2021;En intérieur;RPUB_143558.pdf;Oui;0.33;"Etablissement ouvert au public (Ecole, Et Soins, Gare…)";EXEM
170198;5.434459;43.333004;"43°19'58.814""N 5°26'4.052""E";13213;Avenue de la Croix Rouge;"";13013;MARSEILLE 13E ARRONDISSEMENT;15/11/2021;En intérieur;RPUB_143560.pdf;Oui;0.46;"Etablissement ouvert au public (Ecole, Et Soins, Gare…)";EXEM
170221;5.393622;43.254901;"43°15'17.644""N 5°23'37.039""E";13208;Avenue de Mazargues;"";13008;MARSEILLE 8E ARRONDISSEMENT;10/11/2021;En intérieur;RPUB_143559.pdf;Oui;0.21;"Etablissement ouvert au public (Ecole, Et Soins, Gare…)";EXEM
170244;5.4357;43.331187;"43°19'52.273""N 5°26'8.520""E";13213;Allée des Bergeronnettes;"";13013;MARSEILLE 13E ARRONDISSEMENT;16/11/2021;En extérieur;RPUB_143601.pdf;Oui;0.74;"Etablissement ouvert au public (Ecole, Et Soins, Gare…)";EXEM
170267;5.386026;43.240044;"43°14'24.158""N 5°23'9.694""E";13208;Allée Emmanuel Chabrier;"";13008;MARSEILLE 8E ARRONDISSEMENT;03/11/2021;En intérieur;RPUB_143602.pdf;Oui;0.22;"Etablissement ouvert au public (Ecole, Et Soins, Gare…)";EXEM
170270;5.424092;43.309082;"43°18'32.695""N 5°25'26.731""E";13212;Traverse Maridet;"";13012;MARSEILLE 12E ARRONDISSEMENT;17/11/2021;En intérieur;RPUB_143616.pdf;Oui;1.93;"Etablissement ouvert au public (Ecole, Et Soins, Gare…)";EXEM
170275;5.391365;43.323601;"43°19'24.964""N 5°23'28.914""E";13214;Chemin de Sainte Marthe;"";13014;MARSEILLE 14E ARRONDISSEMENT;09/11/2021;En intérieur;RPUB_143643.pdf;Oui;0.59;"Etablissement ouvert au public (Ecole, Et Soins, Gare…)";EXEM
170278;5.400789;43.245164;"43°14'42.590""N 5°24'2.840""E";13209;Avenue de la Martheline;"";13009;MARSEILLE 9E ARRONDISSEMENT;18/11/2021;En extérieur;RPUB_143641.pdf;Oui;1.16;"Etablissement ouvert au public (Ecole, Et Soins, Gare…)";EXEM
170292;5.399973;43.244945;"43°14'41.802""N 5°23'59.903""E";13209;Avenue de la Soude;"";13009;MARSEILLE 9E ARRONDISSEMENT;18/11/2021;En extérieur;RPUB_143642.pdf;Oui;0.7;"Etablissement ouvert au public (Ecole, Et Soins, Gare…)";EXEM
170293;5.386755;43.246219;"43°14'46.388""N 5°23'12.318""E";13208;Avenue André Zenatti;"";13008;MARSEILLE 8E ARRONDISSEMENT;18/11/2021;En extérieur;RPUB_143645.pdf;Oui;0.26;"Etablissement ouvert au public (Ecole, Et Soins, Gare…)";EXEM
170296;5.402591;43.265105;"43°15'54.378""N 5°24'9.328""E";13209;Avenue Alfred Nicolas;"";13009;MARSEILLE 9E ARRONDISSEMENT;19/11/2021;En intérieur;RPUB_143644.pdf;Oui;0.24;"Etablissement ouvert au public (Ecole, Et Soins, Gare…)";EXEM
170300;5.372157;43.410317;"43°24'37.141""N 5°22'19.765""E";13106;Avenue du 8 Mai 1945;"";13240;SEPTEMES LES VALLONS;29/09/2021;En extérieur;RPUB_143678.pdf;Oui;0.49;Rue / Route / Parking;EXEM
170303;5.389907;43.430322;"43°25'49.159""N 5°23'23.665""E";13015;Impasse des Genévriers;"";13320;BOUC BEL AIR;29/09/2021;En extérieur;RPUB_143675.pdf;Oui;0.46;Rue / Route / Parking;EXEM
170310;5.395898;43.284295;"43°17'3.462""N 5°23'45.233""E";13210;Avenue de Toulon;"";13010;MARSEILLE 10E ARRONDISSEMENT;05/11/2021;En intérieur;RPUB_143691.pdf;Oui;0.25;"Etablissement ouvert au public (Ecole, Et Soins, Gare…)";EXEM
170318;5.163715;43.339263;"43°20'21.347""N 5°9'49.374""E";13021;Avenue de Lombardi;"";13620;CARRY LE ROUET;30/09/2021;En extérieur;RPUB_143676.pdf;Oui;0.74;Rue / Route / Parking;EXEM
170328;5.451897;43.339625;"43°20'22.650""N 5°27'6.829""E";13075;Rue de la Font du Grés;"";13380;PLAN DE CUQUES;29/09/2021;En extérieur;RPUB_143677.pdf;Oui;0.66;Rue / Route / Parking;EXEM
170334;5.392227;43.237051;"43°14'13.384""N 5°23'32.017""E";13209;Allée Granados;"";13009;MARSEILLE 9E ARRONDISSEMENT;18/11/2021;En intérieur;RPUB_143689.pdf;Oui;0.28;"Etablissement ouvert au public (Ecole, Et Soins, Gare…)";EXEM
170340;5.368275;43.337184;"43°20'13.862""N 5°22'5.790""E";13214;Avenue des Aygalades;"";13014;MARSEILLE 14E ARRONDISSEMENT;08/11/2021;En extérieur;RPUB_143692.pdf;Oui;1.17;"Etablissement ouvert au public (Ecole, Et Soins, Gare…)";EXEM
170344;5.405681;43.254205;"43°15'15.138""N 5°24'20.452""E";13209;Avenue Desautel;"";13009;MARSEILLE 9E ARRONDISSEMENT;19/11/2021;En intérieur;RPUB_143690.pdf;Oui;0.37;"Etablissement ouvert au public (Ecole, Et Soins, Gare…)";EXEM
170358;5.551558;43.250873;"43°15'3.143""N 5°33'5.609""E";13119;Avenue Paul Cézanne;"";13470;CARNOUX EN PROVENCE;27/10/2021;En extérieur;RPUB_143717.pdf;Oui;1.34;Rue / Route / Parking;EXEM
170361;5.563934;43.387611;"43°23'15.400""N 5°33'50.162""E";13073;Montée du Réservoir;"";13124;PEYPIN;03/11/2021;En extérieur;RPUB_143718.pdf;Oui;5.0;Rue / Route / Parking;EXEM
170367;5.698664;43.183009;"43°10'58.832""N 5°41'55.190""E";83112;Chemin des Pradeaux;"";83270;SAINT CYR SUR MER;24/11/2021;En extérieur;RPUB_143728.pdf;Oui;0.97;"Lieu d'habitation";EXEM
170400;5.417054;43.261214;"43°15'40.370""N 5°25'1.394""E";13209;Boulevard Urbain S;"";13009;MARSEILLE 9E ARRONDISSEMENT;04/11/2021;En extérieur;RPUB_143792.pdf;Oui;0.85;Rue / Route / Parking;EXEM
170407;5.259511;43.436327;"43°26'10.777""N 5°15'34.240""E";13117;Rue Pierre Blancard;"";13127;VITROLLES;10/11/2021;En extérieur;RPUB_143794.pdf;Oui;4.31;Rue / Route / Parking;EXEM
170413;5.452974;43.301024;"43°18'3.686""N 5°27'10.706""E";13212;Boulevard des Bouires;"";13012;MARSEILLE 12E ARRONDISSEMENT;04/11/2021;En extérieur;RPUB_143793.pdf;Oui;0.7;Rue / Route / Parking;EXEM
170422;5.399373;43.301024;"43°18'3.686""N 5°23'57.743""E";13204;Avenue du Marechal Foch;"";13004;MARSEILLE 4E ARRONDISSEMENT;18/11/2021;En intérieur;RPUB_143753.pdf;Oui;2.82;"Etablissement ouvert au public (Ecole, Et Soins, Gare…)";EXEM
170438;5.525644;43.407395;"43°24'26.622""N 5°31'32.318""E";13101;Chemin du cimetière;"";13119;SAINT SAVOURNIN;03/11/2021;En extérieur;RPUB_143760.pdf;Oui;0.27;Rue / Route / Parking;EXEM
170441;5.392739;43.288242;"43°17'17.671""N 5°23'33.860""E";13205;Boulevard Baille;"";13005;MARSEILLE 5E ARRONDISSEMENT;03/11/2021;En extérieur;RPUB_143761.pdf;Oui;0.38;Rue / Route / Parking;EXEM
170486;5.399224;43.292204;"43°17'31.934""N 5°23'57.206""E";13205;Allée Fraissinet;"";13005;MARSEILLE 5E ARRONDISSEMENT;24/11/2021;En extérieur;RPUB_143810.pdf;Oui;0.77;"Etablissement ouvert au public (Ecole, Et Soins, Gare…)";EXEM
170488;5.387442;43.285039;"43°17'6.140""N 5°23'14.791""E";13206;Avenue de Delphes;"";13006;MARSEILLE 6E ARRONDISSEMENT;23/11/2021;En intérieur;RPUB_143809.pdf;Oui;1.45;"Etablissement ouvert au public (Ecole, Et Soins, Gare…)";EXEM
170578;5.39508;43.315875;"43°18'57.150""N 5°23'42.288""E";13204;Allée des Platanes;"";13004;MARSEILLE 4E ARRONDISSEMENT;26/11/2021;En extérieur;RPUB_143929.pdf;Oui;0.48;"Etablissement ouvert au public (Ecole, Et Soins, Gare…)";EXEM
170579;5.485748;43.293953;"43°17'38.231""N 5°29'8.693""E";13211;Avenue de la Tirane;"";13011;MARSEILLE 11E ARRONDISSEMENT;29/11/2021;En extérieur;RPUB_143928.pdf;Oui;0.31;"Etablissement ouvert au public (Ecole, Et Soins, Gare…)";EXEM
170594;5.399825;43.304475;"43°18'16.110""N 5°23'59.370""E";13204;Rue des Ecoles;"";13004;MARSEILLE 4E ARRONDISSEMENT;24/11/2021;En intérieur;RPUB_143945.pdf;Oui;0.02;"Lieu d'habitation";EXEM
170601;5.399825;43.304475;"43°18'16.110""N 5°23'59.370""E";13204;Rue des Ecoles;"";13004;MARSEILLE 4E ARRONDISSEMENT;24/11/2021;En extérieur;RPUB_143944.pdf;Oui;0.27;"Lieu d'habitation";EXEM
170627;5.454804;43.287025;"43°17'13.290""N 5°27'17.294""E";13211;"Avenue de l'Abbe Lanfranchi";"";13011;MARSEILLE 11E ARRONDISSEMENT;29/11/2021;En extérieur;RPUB_143961.pdf;Oui;1.45;"Etablissement ouvert au public (Ecole, Et Soins, Gare…)";EXEM
170654;5.426265;43.312256;"43°18'44.122""N 5°25'34.554""E";13212;Allée des Primevères;"";13012;MARSEILLE 12E ARRONDISSEMENT;30/11/2021;En intérieur;RPUB_143994.pdf;Oui;2.82;"Etablissement ouvert au public (Ecole, Et Soins, Gare…)";EXEM
170682;5.448103;43.294676;"43°17'40.834""N 5°26'53.171""E";13211;Avenue Bernard Lecache;"";13011;MARSEILLE 11E ARRONDISSEMENT;30/11/2021;En extérieur;RPUB_143992.pdf;Oui;0.33;"Etablissement ouvert au public (Ecole, Et Soins, Gare…)";EXEM
170696;5.502992;43.280322;"43°16'49.159""N 5°30'10.771""E";13211;Allée des Genevriers;"";13011;MARSEILLE 11E ARRONDISSEMENT;29/11/2021;En extérieur;RPUB_143993.pdf;Oui;0.34;"Etablissement ouvert au public (Ecole, Et Soins, Gare…)";EXEM
170741;5.682769;43.1799;"43°10'47.640""N 5°40'57.968""E";83112;Parking du Port;"";83270;SAINT CYR SUR MER;24/11/2021;En extérieur;RPUB_144164.pdf;Oui;0.52;Rue / Route / Parking;EXEM
170744;5.918135;43.171507;"43°10'17.425""N 5°55'5.286""E";83103;Val du Rocher;"";83200;REVEST LES EAUX;24/11/2021;En extérieur;RPUB_144163.pdf;Oui;0.21;Rue / Route / Parking;EXEM
170760;5.592387;43.304981;"43°18'17.932""N 5°35'32.593""E";13005;Chemin de Saint-Pierre;"";13400;AUBAGNE;18/11/2021;En extérieur;RPUB_144144.pdf;Oui;0.67;Rue / Route / Parking;EXEM
170765;5.399943;43.293337;"43°17'36.013""N 5°23'59.795""E";13205;Rue Madon;"";13005;MARSEILLE 5E ARRONDISSEMENT;24/11/2021;En extérieur;RPUB_144145.pdf;Oui;2.3;Rue / Route / Parking;EXEM
170773;5.380007;43.331669;"43°19'54.008""N 5°22'48.025""E";13214;Rue du Muret;"";13014;MARSEILLE 14E ARRONDISSEMENT;26/11/2021;En extérieur;RPUB_144146.pdf;Oui;1.37;Rue / Route / Parking;EXEM
170779;5.438104;43.244765;"43°14'41.154""N 5°26'17.174""E";13209;Avenue de Luminy;"";13009;MARSEILLE 9E ARRONDISSEMENT;02/12/2021;En extérieur;RPUB_144115.pdf;Oui;0.42;"Etablissement ouvert au public (Ecole, Et Soins, Gare…)";EXEM
170784;5.420896;43.258318;"43°15'29.945""N 5°25'15.226""E";13209;Avenue Campagne Berger;"";13009;MARSEILLE 9E ARRONDISSEMENT;02/12/2021;En extérieur;RPUB_144119.pdf;Oui;0.15;"Etablissement ouvert au public (Ecole, Et Soins, Gare…)";EXEM
170791;5.42791;43.300475;"43°18'1.710""N 5°25'40.476""E";13212;Avenue de la Fourragere;"";13012;MARSEILLE 12E ARRONDISSEMENT;30/11/2021;En intérieur;RPUB_144118.pdf;Oui;0.49;"Etablissement ouvert au public (Ecole, Et Soins, Gare…)";EXEM
170803;5.415897;43.25349;"43°15'12.564""N 5°24'57.229""E";13209;Allée des Pins-le Cabot;"";13009;MARSEILLE 9E ARRONDISSEMENT;02/12/2021;En extérieur;RPUB_144120.pdf;Oui;0.19;"Etablissement ouvert au public (Ecole, Et Soins, Gare…)";EXEM
170812;5.359032;43.369595;"43°22'10.542""N 5°21'32.515""E";13215;Avenue de Roquefavour;"";13015;MARSEILLE 15E ARRONDISSEMENT;26/11/2021;En intérieur;RPUB_144116.pdf;Oui;0.3;"Etablissement ouvert au public (Ecole, Et Soins, Gare…)";EXEM
170813;5.551347;43.28081;"43°16'50.916""N 5°33'4.849""E";13005;Avenue de la Paix;"";13400;AUBAGNE;18/11/2021;En extérieur;RPUB_144147.pdf;Oui;0.66;Rue / Route / Parking;EXEM
170823;5.571931;43.286766;"43°17'12.358""N 5°34'18.952""E";13005;Chemin des Espillières;"";13400;AUBAGNE;18/11/2021;En extérieur;RPUB_144143.pdf;Oui;0.99;Rue / Route / Parking;EXEM
170824;5.483744;43.338078;"43°20'17.081""N 5°29'1.478""E";13002;Avenue du Général de Gaulle;"";13190;ALLAUCH;18/11/2021;En extérieur;RPUB_144142.pdf;Oui;0.2;Rue / Route / Parking;EXEM
170830;5.438426;43.30609;"43°18'21.924""N 5°26'18.334""E";13212;Avenue de la Figone;"";13012;MARSEILLE 12E ARRONDISSEMENT;30/11/2021;En extérieur;RPUB_144117.pdf;Oui;0.62;"Etablissement ouvert au public (Ecole, Et Soins, Gare…)";EXEM
170835;5.426785;43.244156;"43°14'38.962""N 5°25'36.426""E";13209;Avenue de Lattre de Tassigny;"";13009;MARSEILLE 9E ARRONDISSEMENT;02/12/2021;En extérieur;RPUB_144114.pdf;Oui;1.53;"Etablissement ouvert au public (Ecole, Et Soins, Gare…)";EXEM
170851;5.738953;43.195508;"43°11'43.829""N 5°44'20.231""E";83027;Chemin des Bruns;"";83740;CADIERE D AZUR;24/11/2021;En extérieur;RPUB_144168.pdf;Oui;2.03;Rue / Route / Parking;EXEM
170865;5.344033;43.375015;"43°22'30.054""N 5°20'38.519""E";13215;Boulevard de la Pinède;"";13015;MARSEILLE 15E ARRONDISSEMENT;24/11/2021;En intérieur;RPUB_144267.pdf;Oui;0.29;"Etablissement ouvert au public (Ecole, Et Soins, Gare…)";EXEM
170872;5.356221;43.375896;"43°22'33.226""N 5°21'22.396""E";13215;Avenue de Saint Antoine;"";13015;MARSEILLE 15E ARRONDISSEMENT;24/11/2021;En extérieur;RPUB_144265.pdf;Oui;0.36;"Etablissement ouvert au public (Ecole, Et Soins, Gare…)";EXEM
170875;5.3711;43.419509;"43°25'10.232""N 5°22'15.960""E";13019;Chemin de la Charbonnière;"";13480;CABRIES;15/10/2021;En extérieur;RPUB_144219.pdf;Oui;1.3;Rue / Route / Parking;EXEM
170876;5.403943;43.29812;"43°17'53.232""N 5°24'14.195""E";13204;Boulevard Boisson;"";13004;MARSEILLE 4E ARRONDISSEMENT;18/11/2021;En extérieur;RPUB_144271.pdf;Oui;0.92;"Etablissement ouvert au public (Ecole, Et Soins, Gare…)";EXEM
170899;5.794535;43.243451;"43°14'36.424""N 5°47'40.326""E";83035;La Roche du Saule;"";83330;CASTELLET;29/10/2021;En extérieur;RPUB_144214.pdf;Oui;0.73;Rue / Route / Parking;EXEM
170923;5.374417;43.324241;"43°19'27.268""N 5°22'27.901""E";13214;Boulevard Barbes;"";13014;MARSEILLE 14E ARRONDISSEMENT;09/11/2021;En intérieur;RPUB_144270.pdf;Oui;0.66;"Etablissement ouvert au public (Ecole, Et Soins, Gare…)";EXEM
170926;5.403813;43.331245;"43°19'52.482""N 5°24'13.727""E";13214;Avenue Alexandre Ansaldi;"";13014;MARSEILLE 14E ARRONDISSEMENT;03/12/2021;En intérieur;RPUB_144264.pdf;Oui;1.72;"Etablissement ouvert au public (Ecole, Et Soins, Gare…)";EXEM
170928;5.368409;43.367793;"43°22'4.055""N 5°22'6.272""E";13215;Boulevard de la Savine;"";13015;MARSEILLE 15E ARRONDISSEMENT;26/11/2021;En intérieur;RPUB_144268.pdf;Oui;0.79;"Etablissement ouvert au public (Ecole, Et Soins, Gare…)";EXEM
170938;5.316482;43.3616;"43°21'41.760""N 5°18'59.335""E";13216;Boulevard Albin Bandini;"";13016;MARSEILLE 16E ARRONDISSEMENT;22/11/2021;En intérieur;RPUB_144266.pdf;Oui;0.42;"Etablissement ouvert au public (Ecole, Et Soins, Gare…)";EXEM
170942;5.368581;43.368324;"43°22'5.966""N 5°22'6.892""E";13215;Boulevard de la Savine;"";13015;MARSEILLE 15E ARRONDISSEMENT;26/11/2021;En intérieur;RPUB_144269.pdf;Oui;0.26;"Etablissement ouvert au public (Ecole, Et Soins, Gare…)";EXEM
170954;5.260418;43.425777;"43°25'32.797""N 5°15'37.505""E";13117;"Voie d'Angleterre";"";13127;VITROLLES;29/11/2021;En extérieur;RPUB_144347.pdf;Oui;3.88;Rue / Route / Parking;EXEM
171043;5.429499;43.290709;"43°17'26.552""N 5°25'46.196""E";13211;Allée des Platanes;"";13011;MARSEILLE 11E ARRONDISSEMENT;06/12/2021;En intérieur;RPUB_144521.pdf;Oui;0.37;"Etablissement ouvert au public (Ecole, Et Soins, Gare…)";EXEM
171057;5.440979;43.288944;"43°17'20.198""N 5°26'27.524""E";13211;Avenue du Docteur Heckel;"";13011;MARSEILLE 11E ARRONDISSEMENT;06/12/2021;En extérieur;RPUB_144523.pdf;Oui;1.05;"Etablissement ouvert au public (Ecole, Et Soins, Gare…)";EXEM
171065;5.462576;43.315276;"43°18'54.994""N 5°27'45.274""E";13212;Avenue des Poilus;"";13012;MARSEILLE 12E ARRONDISSEMENT;07/12/2021;En intérieur;RPUB_144522.pdf;Oui;0.22;"Etablissement ouvert au public (Ecole, Et Soins, Gare…)";EXEM
171087;5.375211;43.330118;"43°19'48.425""N 5°22'30.760""E";13214;Boulevard de la Maison Blanche;"";13014;MARSEILLE 14E ARRONDISSEMENT;08/11/2021;En intérieur;RPUB_144527.pdf;Oui;0.52;"Etablissement ouvert au public (Ecole, Et Soins, Gare…)";EXEM
171141;5.456343;43.311611;"43°18'41.800""N 5°27'22.835""E";13212;Avenue Fernandel;"";13012;MARSEILLE 12E ARRONDISSEMENT;07/12/2021;En extérieur;RPUB_144525.pdf;Oui;0.22;"Etablissement ouvert au public (Ecole, Et Soins, Gare…)";EXEM
171143;5.59861;43.18341;"43°11'0.276""N 5°35'54.996""E";13028;Chemin du Puits de Brunet;"";13600;CIOTAT;27/10/2021;En extérieur;RPUB_144453.pdf;Oui;1.24;Rue / Route / Parking;EXEM
171194;5.384803;43.323781;"43°19'25.612""N 5°23'5.291""E";13214;Boulevard Charles Moretti;"";13014;MARSEILLE 14E ARRONDISSEMENT;08/11/2021;En extérieur;RPUB_144526.pdf;Oui;0.41;"Etablissement ouvert au public (Ecole, Et Soins, Gare…)";EXEM
171202;5.4407;43.289233;"43°17'21.239""N 5°26'26.520""E";13211;Avenue du Docteur Heckel;"";13011;MARSEILLE 11E ARRONDISSEMENT;06/12/2021;En intérieur;RPUB_144524.pdf;Oui;0.5;"Etablissement ouvert au public (Ecole, Et Soins, Gare…)";EXEM
171239;5.369053;43.354205;"43°21'15.138""N 5°22'8.591""E";13215;Boulevard de la Padouane;"";13015;MARSEILLE 15E ARRONDISSEMENT;07/12/2021;En intérieur;RPUB_144592.pdf;Oui;1.05;"Etablissement ouvert au public (Ecole, Et Soins, Gare…)";EXEM
171243;5.449862;43.315429;"43°18'55.544""N 5°26'59.503""E";13212;Boulevard Bonniot;"";13012;MARSEILLE 12E ARRONDISSEMENT;07/12/2021;En intérieur;RPUB_144594.pdf;Oui;0.26;"Etablissement ouvert au public (Ecole, Et Soins, Gare…)";EXEM
171268;5.366895;43.363038;"43°21'46.937""N 5°22'0.822""E";13215;Boulevard Bellevue;"";13015;MARSEILLE 15E ARRONDISSEMENT;07/12/2021;En extérieur;RPUB_144593.pdf;Oui;0.25;"Etablissement ouvert au public (Ecole, Et Soins, Gare…)";EXEM
171281;5.41465;43.305928;"43°18'21.341""N 5°24'52.740""E";13212;Allée des Philippines;"";13012;MARSEILLE 12E ARRONDISSEMENT;18/11/2021;En extérieur;RPUB_144625.pdf;Oui;1.62;Rue / Route / Parking;EXEM
171316;5.376971;43.349914;"43°20'59.690""N 5°22'37.096""E";13215;Avenue du Castellas;"";13015;MARSEILLE 15E ARRONDISSEMENT;07/12/2021;En intérieur;RPUB_144589.pdf;Oui;1.4;"Etablissement ouvert au public (Ecole, Et Soins, Gare…)";EXEM
171321;5.401568;43.27002;"43°16'12.072""N 5°24'5.645""E";13209;Rue Raymond Tesseire;"";13009;MARSEILLE 9E ARRONDISSEMENT;08/12/2021;En extérieur;RPUB_144698.pdf;Oui;3.41;Rue / Route / Parking;EXEM
171325;5.434036;43.315349;"43°18'55.256""N 5°26'2.530""E";13212;Avenue de la Campagne;"";13012;MARSEILLE 12E ARRONDISSEMENT;08/12/2021;En extérieur;RPUB_144583.pdf;Oui;1.01;Rue / Route / Parking;EXEM
171329;5.371735;43.388107;"43°23'17.185""N 5°22'18.246""E";13215;"Avenue du Vallon d'Ol";"";13015;MARSEILLE 15E ARRONDISSEMENT;25/11/2021;En intérieur;RPUB_144591.pdf;Oui;0.33;"Etablissement ouvert au public (Ecole, Et Soins, Gare…)";EXEM
171354;5.031459;43.39337;"43°23'36.132""N 5°1'53.252""E";13056;Allée Marie André Ampère;"";13500;MARTIGUES;08/12/2021;En extérieur;RPUB_144610.pdf;Oui;2.84;Rue / Route / Parking;EXEM
171356;5.405338;43.25029;"43°15'1.044""N 5°24'19.217""E";13209;Avenue Marie Balajat;"";13009;MARSEILLE 9E ARRONDISSEMENT;19/11/2021;En intérieur;RPUB_144590.pdf;Oui;0.26;"Etablissement ouvert au public (Ecole, Et Soins, Gare…)";EXEM
171357;5.359397;43.357045;"43°21'25.362""N 5°21'33.829""E";13215;Avenue de la Viste;"";13015;MARSEILLE 15E ARRONDISSEMENT;07/12/2021;En extérieur;RPUB_144586.pdf;Oui;2.36;"Etablissement ouvert au public (Ecole, Et Soins, Gare…)";EXEM
171358;5.396123;43.310539;"43°18'37.940""N 5°23'46.043""E";13204;Avenue des Chutes Lavie;"";13004;MARSEILLE 4E ARRONDISSEMENT;26/11/2021;En extérieur;RPUB_144587.pdf;Oui;1.59;"Etablissement ouvert au public (Ecole, Et Soins, Gare…)";EXEM
171359;5.463145;43.314796;"43°18'53.266""N 5°27'47.322""E";13212;Avenue des Poilus;"";13012;MARSEILLE 12E ARRONDISSEMENT;07/12/2021;En intérieur;RPUB_144588.pdf;Oui;0.26;"Etablissement ouvert au public (Ecole, Et Soins, Gare…)";EXEM
171362;5.45954;43.295473;"43°17'43.703""N 5°27'34.344""E";13211;Allée de la Rouguière;"";13011;MARSEILLE 11E ARRONDISSEMENT;29/11/2021;En extérieur;RPUB_144731.pdf;Oui;0.6;"Etablissement ouvert au public (Ecole, Et Soins, Gare…)";EXEM
171363;5.398021;43.296168;"43°17'46.205""N 5°23'52.876""E";13205;Boulevard Chave;"";13005;MARSEILLE 5E ARRONDISSEMENT;16/11/2021;En intérieur;RPUB_144744.pdf;Oui;1.3;"Etablissement ouvert au public (Ecole, Et Soins, Gare…)";EXEM
171365;5.39827;43.289567;"43°17'22.441""N 5°23'53.772""E";13205;Boulevard Baille;"";13005;MARSEILLE 5E ARRONDISSEMENT;24/11/2021;En intérieur;RPUB_144749.pdf;Oui;0.44;"Etablissement ouvert au public (Ecole, Et Soins, Gare…)";EXEM
171375;5.428319;43.325669;"43°19'32.408""N 5°25'41.948""E";13213;Avenue de Frais Vallon;"";13013;MARSEILLE 13E ARRONDISSEMENT;03/12/2021;En extérieur;RPUB_144730.pdf;Oui;0.26;"Etablissement ouvert au public (Ecole, Et Soins, Gare…)";EXEM
171377;5.359077;43.333123;"43°19'59.243""N 5°21'32.677""E";13215;Boulevard Arthur Michaud;"";13015;MARSEILLE 15E ARRONDISSEMENT;09/12/2021;En extérieur;RPUB_144740.pdf;Oui;0.95;"Etablissement ouvert au public (Ecole, Et Soins, Gare…)";EXEM
171382;5.396445;43.283853;"43°17'1.871""N 5°23'47.202""E";13210;Avenue de Toulon;"";13010;MARSEILLE 10E ARRONDISSEMENT;05/11/2021;En intérieur;RPUB_144733.pdf;Oui;0.33;"Etablissement ouvert au public (Ecole, Et Soins, Gare…)";EXEM
171384;5.400471;43.312151;"43°18'43.744""N 5°24'1.696""E";13204;Avenue des Chartreux;"";13004;MARSEILLE 4E ARRONDISSEMENT;26/11/2021;En extérieur;RPUB_144734.pdf;Oui;0.51;"Etablissement ouvert au public (Ecole, Et Soins, Gare…)";EXEM
171396;5.419757;43.329938;"43°19'47.777""N 5°25'11.125""E";13213;Boulevard Auphan;"";13013;MARSEILLE 13E ARRONDISSEMENT;15/11/2021;En intérieur;RPUB_144743.pdf;Oui;0.42;"Etablissement ouvert au public (Ecole, Et Soins, Gare…)";EXEM
171403;5.406497;43.281587;"43°16'53.713""N 5°24'23.389""E";13210;Boulevard de la Barnière;"";13010;MARSEILLE 10E ARRONDISSEMENT;09/12/2021;En extérieur;RPUB_144747.pdf;Oui;0.89;"Etablissement ouvert au public (Ecole, Et Soins, Gare…)";EXEM
171409;5.500975;43.28172;"43°16'54.192""N 5°30'3.510""E";13211;Boulevard Albert Sauze;"";13011;MARSEILLE 11E ARRONDISSEMENT;06/12/2021;En intérieur;RPUB_144736.pdf;Oui;0.3;"Etablissement ouvert au public (Ecole, Et Soins, Gare…)";EXEM
171410;5.379566;43.315794;"43°18'56.858""N 5°22'46.438""E";13203;Avenue Edouard Vaillant;"";13003;MARSEILLE 3E ARRONDISSEMENT;09/12/2021;En extérieur;RPUB_144742.pdf;Oui;1.8;"Etablissement ouvert au public (Ecole, Et Soins, Gare…)";EXEM
171413;5.366027;43.282267;"43°16'56.161""N 5°21'57.697""E";13207;Boulevard Amedee Autran;"";13007;MARSEILLE 7E ARRONDISSEMENT;09/12/2021;En extérieur;RPUB_144737.pdf;Oui;0.34;"Etablissement ouvert au public (Ecole, Et Soins, Gare…)";EXEM
171415;5.366499;43.28229;"43°16'56.244""N 5°21'59.396""E";13207;Boulevard Amedee Autran;"";13007;MARSEILLE 7E ARRONDISSEMENT;09/12/2021;En extérieur;RPUB_144738.pdf;Oui;0.38;"Etablissement ouvert au public (Ecole, Et Soins, Gare…)";EXEM
171417;5.393965;43.310448;"43°18'37.613""N 5°23'38.274""E";13204;Boulevard Dahdah;"";13004;MARSEILLE 4E ARRONDISSEMENT;26/11/2021;En extérieur;RPUB_144746.pdf;Oui;0.6;"Etablissement ouvert au public (Ecole, Et Soins, Gare…)";EXEM
171422;5.368903;43.289936;"43°17'23.770""N 5°22'8.051""E";13207;Boulevard de la Corderie;"";13007;MARSEILLE 7E ARRONDISSEMENT;22/11/2021;En intérieur;RPUB_144748.pdf;Oui;1.84;"Etablissement ouvert au public (Ecole, Et Soins, Gare…)";EXEM
171428;5.398858;43.296449;"43°17'47.216""N 5°23'55.889""E";13205;Boulevard Chave;"";13005;MARSEILLE 5E ARRONDISSEMENT;16/11/2021;En intérieur;RPUB_144745.pdf;Oui;0.25;"Etablissement ouvert au public (Ecole, Et Soins, Gare…)";EXEM
171441;5.430443;43.279752;"43°16'47.107""N 5°25'49.595""E";13210;Avenue Castel Joli;"";13010;MARSEILLE 10E ARRONDISSEMENT;09/12/2021;En intérieur;RPUB_144732.pdf;Oui;0.83;"Etablissement ouvert au public (Ecole, Et Soins, Gare…)";EXEM
171442;5.37812;43.316516;"43°18'59.458""N 5°22'41.232""E";13203;Avenue Edouard Vaillant;"";13003;MARSEILLE 3E ARRONDISSEMENT;09/12/2021;En intérieur;RPUB_144741.pdf;Oui;0.95;"Etablissement ouvert au public (Ecole, Et Soins, Gare…)";EXEM
171454;5.408556;43.33846;"43°20'18.456""N 5°24'30.802""E";13214;Avenue du Merlan;"";13014;MARSEILLE 14E ARRONDISSEMENT;08/12/2021;En extérieur;RPUB_144739.pdf;Oui;0.62;"Etablissement ouvert au public (Ecole, Et Soins, Gare…)";EXEM
171455;5.40802;43.33846;"43°20'18.456""N 5°24'28.872""E";13214;Avenue du Merlan;"";13014;MARSEILLE 14E ARRONDISSEMENT;08/12/2021;En extérieur;RPUB_144735.pdf;Oui;2.03;"Etablissement ouvert au public (Ecole, Et Soins, Gare…)";EXEM
171466;5.426522;43.325268;"43°19'30.965""N 5°25'35.479""E";13213;Avenue de Frais Vallon;"";13013;MARSEILLE 13E ARRONDISSEMENT;03/12/2021;En intérieur;RPUB_144729.pdf;Oui;0.22;"Etablissement ouvert au public (Ecole, Et Soins, Gare…)";EXEM
171470;5.361242;43.2324;"43°13'56.640""N 5°21'40.471""E";13208;Boulevard de la Verrerie;"";13008;MARSEILLE 8E ARRONDISSEMENT;03/11/2021;En extérieur;RPUB_144848.pdf;Oui;0.18;"Etablissement ouvert au public (Ecole, Et Soins, Gare…)";EXEM
171477;5.416484;43.252952;"43°15'10.627""N 5°24'59.342""E";13209;Allée des Pins;"";13009;MARSEILLE 9E ARRONDISSEMENT;02/12/2021;En intérieur;RPUB_144843.pdf;Oui;0.11;"Etablissement ouvert au public (Ecole, Et Soins, Gare…)";EXEM
171486;5.366135;43.23555;"43°14'7.980""N 5°21'58.086""E";13208;Boulevard des Salyens;"";13008;MARSEILLE 8E ARRONDISSEMENT;02/11/2021;En intérieur;RPUB_144850.pdf;Oui;0.25;"Etablissement ouvert au public (Ecole, Et Soins, Gare…)";EXEM
171487;5.563695;43.294036;"43°17'38.530""N 5°33'49.302""E";13005;Avenue Simon Lagunas;"";13400;AUBAGNE;11/12/2021;En extérieur;RPUB_144871.pdf;Oui;1.54;Rue / Route / Parking;EXEM
171489;5.395438;43.33133;"43°19'52.788""N 5°23'43.577""E";13214;Boulevard Charles Mattei;"";13014;MARSEILLE 14E ARRONDISSEMENT;10/12/2021;En extérieur;RPUB_144828.pdf;Oui;1.27;"Etablissement ouvert au public (Ecole, Et Soins, Gare…)";EXEM
171492;5.381748;43.248389;"43°14'54.200""N 5°22'54.293""E";13208;Boulevard du Sablier;"";13008;MARSEILLE 8E ARRONDISSEMENT;02/11/2021;En intérieur;RPUB_144845.pdf;Oui;0.51;"Etablissement ouvert au public (Ecole, Et Soins, Gare…)";EXEM
171494;5.407086;43.328683;"43°19'43.259""N 5°24'25.510""E";13213;Avenue Saint Paul;"";13013;MARSEILLE 13E ARRONDISSEMENT;10/12/2021;En intérieur;RPUB_144827.pdf;Oui;0.96;"Etablissement ouvert au public (Ecole, Et Soins, Gare…)";EXEM
171495;5.361478;43.231884;"43°13'54.782""N 5°21'41.321""E";13208;Boulevard de la Verrerie;"";13008;MARSEILLE 8E ARRONDISSEMENT;03/11/2021;En intérieur;RPUB_144847.pdf;Oui;0.43;"Etablissement ouvert au public (Ecole, Et Soins, Gare…)";EXEM
171498;5.442717;43.298221;"43°17'53.596""N 5°26'33.781""E";13212;"Boulevard Bouyala d'Arnaud";"";13012;MARSEILLE 12E ARRONDISSEMENT;10/12/2021;En intérieur;RPUB_144829.pdf;Oui;0.27;"Etablissement ouvert au public (Ecole, Et Soins, Gare…)";EXEM
171499;5.428078;43.332545;"43°19'57.162""N 5°25'41.081""E";13213;Boulevard du Metro;"";13013;MARSEILLE 13E ARRONDISSEMENT;16/11/2021;En intérieur;RPUB_144842.pdf;Oui;0.88;"Etablissement ouvert au public (Ecole, Et Soins, Gare…)";EXEM
171500;5.372207;43.242447;"43°14'32.809""N 5°22'19.945""E";13208;Boulevard de Nice;"";13008;MARSEILLE 8E ARRONDISSEMENT;04/11/2021;En intérieur;RPUB_144849.pdf;Oui;0.33;"Etablissement ouvert au public (Ecole, Et Soins, Gare…)";EXEM
171503;5.411346;43.31254;"43°18'45.144""N 5°24'40.846""E";13212;Avenue de Montolivet;"";13012;MARSEILLE 12E ARRONDISSEMENT;10/12/2021;En extérieur;RPUB_144823.pdf;Oui;0.31;"Etablissement ouvert au public (Ecole, Et Soins, Gare…)";EXEM
171506;5.354397;43.369322;"43°22'9.559""N 5°21'15.829""E";13215;Boulevard du Commandant Robert Thollon;"";13015;MARSEILLE 15E ARRONDISSEMENT;26/11/2021;En intérieur;RPUB_144840.pdf;Oui;0.35;"Etablissement ouvert au public (Ecole, Et Soins, Gare…)";EXEM
171509;5.43422;43.321353;"43°19'16.871""N 5°26'3.192""E";13212;Avenue Jean Compadieu;"";13012;MARSEILLE 12E ARRONDISSEMENT;10/12/2021;En extérieur;RPUB_144826.pdf;Oui;0.74;"Etablissement ouvert au public (Ecole, Et Soins, Gare…)";EXEM
171511;5.381262;43.251525;"43°15'5.490""N 5°22'52.543""E";13208;Boulevard du Sablier;"";13008;MARSEILLE 8E ARRONDISSEMENT;02/11/2021;En extérieur;RPUB_144844.pdf;Oui;0.99;"Etablissement ouvert au public (Ecole, Et Soins, Gare…)";EXEM
171514;5.399415;43.307239;"43°18'26.060""N 5°23'57.894""E";13204;Avenue des Chartreux;"";13004;MARSEILLE 4E ARRONDISSEMENT;10/12/2021;En extérieur;RPUB_144825.pdf;Oui;1.07;"Etablissement ouvert au public (Ecole, Et Soins, Gare…)";EXEM
171516;5.41037;43.242045;"43°14'31.362""N 5°24'37.332""E";13209;Boulevard du Marechal Koenig;"";13009;MARSEILLE 9E ARRONDISSEMENT;18/11/2021;En intérieur;RPUB_144841.pdf;Oui;0.16;"Etablissement ouvert au public (Ecole, Et Soins, Gare…)";EXEM
171517;5.320451;43.360844;"43°21'39.038""N 5°19'13.624""E";13216;Boulevard Fenouil;"";13016;MARSEILLE 16E ARRONDISSEMENT;22/11/2021;En intérieur;RPUB_144851.pdf;Oui;0.32;"Etablissement ouvert au public (Ecole, Et Soins, Gare…)";EXEM
171519;5.41495;43.298427;"43°17'54.337""N 5°24'53.820""E";13212;"Avenue d'Haiti";"";13012;MARSEILLE 12E ARRONDISSEMENT;10/12/2021;En intérieur;RPUB_144824.pdf;Oui;0.27;"Etablissement ouvert au public (Ecole, Et Soins, Gare…)";EXEM
171521;5.343446;43.375147;"43°22'30.529""N 5°20'36.406""E";13215;Boulevard Marius Bremond;"";13015;MARSEILLE 15E ARRONDISSEMENT;23/11/2021;En intérieur;RPUB_144852.pdf;Oui;0.4;"Etablissement ouvert au public (Ecole, Et Soins, Gare…)";EXEM
171522;5.308349;43.362981;"43°21'46.732""N 5°18'30.056""E";13216;Boulevard Falaise;"";13016;MARSEILLE 16E ARRONDISSEMENT;22/11/2021;En intérieur;RPUB_144846.pdf;Oui;0.25;"Etablissement ouvert au public (Ecole, Et Soins, Gare…)";EXEM
171527;5.383236;43.321049;"43°19'15.776""N 5°22'59.650""E";13214;Boulevard Kraemer;"";13014;MARSEILLE 14E ARRONDISSEMENT;09/11/2021;En intérieur;RPUB_144898.pdf;Oui;0.2;"Etablissement ouvert au public (Ecole, Et Soins, Gare…)";EXEM
171528;5.393262;43.263456;"43°15'48.442""N 5°23'35.743""E";13208;Avenue de Mazargues;"";13008;MARSEILLE 8E ARRONDISSEMENT;14/12/2021;En intérieur;RPUB_144877.pdf;Oui;0.73;"Etablissement ouvert au public (Ecole, Et Soins, Gare…)";EXEM
171529;5.405983;43.293997;"43°17'38.389""N 5°24'21.539""E";13205;Boulevard Louis Frangin;"";13005;MARSEILLE 5E ARRONDISSEMENT;16/11/2021;En extérieur;RPUB_144892.pdf;Oui;0.54;"Etablissement ouvert au public (Ecole, Et Soins, Gare…)";EXEM
171531;5.481834;43.283477;"43°17'0.517""N 5°28'54.602""E";13211;Impasse Sauveur;"";13011;MARSEILLE 11E ARRONDISSEMENT;13/12/2021;En intérieur;RPUB_144894.pdf;Oui;0.14;"Etablissement ouvert au public (Ecole, Et Soins, Gare…)";EXEM
171532;5.417333;43.330071;"43°19'48.256""N 5°25'2.399""E";13213;Avenue de Saint Jerome;"";13013;MARSEILLE 13E ARRONDISSEMENT;10/12/2021;En extérieur;RPUB_144879.pdf;Oui;0.66;"Etablissement ouvert au public (Ecole, Et Soins, Gare…)";EXEM
171536;5.366864;43.354665;"43°21'16.794""N 5°22'0.710""E";13215;Boulevard Falque;"";13015;MARSEILLE 15E ARRONDISSEMENT;13/12/2021;En extérieur;RPUB_144888.pdf;Oui;0.64;"Etablissement ouvert au public (Ecole, Et Soins, Gare…)";EXEM
171538;5.360963;43.279525;"43°16'46.290""N 5°21'39.467""E";13207;Boulevard Bompard;"";13007;MARSEILLE 7E ARRONDISSEMENT;13/12/2021;En extérieur;RPUB_144881.pdf;Oui;0.46;"Etablissement ouvert au public (Ecole, Et Soins, Gare…)";EXEM
171540;5.368602;43.337157;"43°20'13.765""N 5°22'6.967""E";13214;Boulevard Frederic Sauvage;"";13014;MARSEILLE 14E ARRONDISSEMENT;08/11/2021;En intérieur;RPUB_144897.pdf;Oui;1.61;"Etablissement ouvert au public (Ecole, Et Soins, Gare…)";EXEM
171542;5.481899;43.284063;"43°17'2.627""N 5°28'54.836""E";13211;Boulevard Lucien Margallan;"";13011;MARSEILLE 11E ARRONDISSEMENT;13/12/2021;En intérieur;RPUB_144893.pdf;Oui;0.48;"Etablissement ouvert au public (Ecole, Et Soins, Gare…)";EXEM
171544;5.381024;43.329425;"43°19'45.930""N 5°22'51.686""E";13214;Boulevard Larousse;"";13014;MARSEILLE 14E ARRONDISSEMENT;08/11/2021;En intérieur;RPUB_144889.pdf;Oui;0.3;"Etablissement ouvert au public (Ecole, Et Soins, Gare…)";EXEM
171551;5.396423;43.260972;"43°15'39.499""N 5°23'47.123""E";13208;Boulevard Michelet;"";13008;MARSEILLE 8E ARRONDISSEMENT;10/11/2021;En extérieur;RPUB_144896.pdf;Oui;0.43;"Etablissement ouvert au public (Ecole, Et Soins, Gare…)";EXEM
171552;5.40463;43.302032;"43°18'7.315""N 5°24'16.668""E";13204;Boulevard Louis Botinelly;"";13004;MARSEILLE 4E ARRONDISSEMENT;25/11/2021;En intérieur;RPUB_144891.pdf;Oui;0.21;"Etablissement ouvert au public (Ecole, Et Soins, Gare…)";EXEM
171553;5.361714;43.284907;"43°17'5.665""N 5°21'42.170""E";13207;Boulevard Marius Thomas;"";13007;MARSEILLE 7E ARRONDISSEMENT;13/12/2021;En intérieur;RPUB_144895.pdf;Oui;0.21;"Etablissement ouvert au public (Ecole, Et Soins, Gare…)";EXEM
171555;5.418406;43.329704;"43°19'46.934""N 5°25'6.262""E";13213;Avenue de Saint Jerome;"";13013;MARSEILLE 13E ARRONDISSEMENT;10/12/2021;En extérieur;RPUB_144878.pdf;Oui;0.76;"Etablissement ouvert au public (Ecole, Et Soins, Gare…)";EXEM
171556;5.404737;43.301688;"43°18'6.077""N 5°24'17.053""E";13204;Boulevard Louis Botinelly;"";13004;MARSEILLE 4E ARRONDISSEMENT;16/11/2021;En intérieur;RPUB_144890.pdf;Oui;0.22;"Etablissement ouvert au public (Ecole, Et Soins, Gare…)";EXEM
171570;5.448882;43.283808;"43°17'1.709""N 5°26'55.975""E";13211;Avenue du Pontet;"";13011;MARSEILLE 11E ARRONDISSEMENT;13/12/2021;En extérieur;RPUB_144880.pdf;Oui;0.57;"Etablissement ouvert au public (Ecole, Et Soins, Gare…)";EXEM
171582;5.370426;43.320206;"43°19'12.742""N 5°22'13.534""E";13215;Boulevard Ferdinand de Lesseps;"";13015;MARSEILLE 15E ARRONDISSEMENT;14/12/2021;En extérieur;RPUB_144934.pdf;Oui;1.32;"Etablissement ouvert au public (Ecole, Et Soins, Gare…)";EXEM
171606;5.423716;43.250927;"43°15'3.337""N 5°25'25.378""E";13209;Boulevard du Redon;"";13009;MARSEILLE 9E ARRONDISSEMENT;14/12/2021;En intérieur;RPUB_144933.pdf;Oui;0.25;"Etablissement ouvert au public (Ecole, Et Soins, Gare…)";EXEM
171639;5.341694;43.364845;"43°21'53.442""N 5°20'30.098""E";13215;Boulevard Henri Barnier;"";13015;MARSEILLE 15E ARRONDISSEMENT;23/11/2021;En extérieur;RPUB_144936.pdf;Oui;0.31;"Etablissement ouvert au public (Ecole, Et Soins, Gare…)";EXEM
171641;5.426388;43.334941;"43°20'5.788""N 5°25'34.997""E";13213;Avenue Merleau Ponty;"";13013;MARSEILLE 13E ARRONDISSEMENT;16/11/2021;En extérieur;RPUB_144926.pdf;Oui;0.53;"Etablissement ouvert au public (Ecole, Et Soins, Gare…)";EXEM
171644;5.37077;43.320237;"43°19'12.853""N 5°22'14.772""E";13215;Boulevard Ferdinand de Lesseps;"";13015;MARSEILLE 15E ARRONDISSEMENT;14/12/2021;En extérieur;RPUB_144935.pdf;Oui;1.24;"Etablissement ouvert au public (Ecole, Et Soins, Gare…)";EXEM
171654;5.3986;43.267214;"43°16'1.970""N 5°23'54.960""E";13209;Boulevard Gaston Ramon;"";13009;MARSEILLE 9E ARRONDISSEMENT;14/12/2021;En intérieur;RPUB_145018.pdf;Oui;0.72;"Etablissement ouvert au public (Ecole, Et Soins, Gare…)";EXEM
171655;5.380784;43.298342;"43°17'54.031""N 5°22'50.822""E";13201;Boulevard Dugommier;"";13001;MARSEILLE 1ER ARRONDISSEMENT;15/12/2021;En extérieur;RPUB_145038.pdf;Oui;1.82;Rue / Route / Parking;EXEM
171666;5.347509;43.370297;"43°22'13.069""N 5°20'51.032""E";13215;Boulevard Henri Barnier;"";13015;MARSEILLE 15E ARRONDISSEMENT;23/11/2021;En intérieur;RPUB_145019.pdf;Oui;0.8;"Etablissement ouvert au public (Ecole, Et Soins, Gare…)";EXEM
171671;5.438597;43.35018;"43°21'0.648""N 5°26'18.949""E";13213;Boulevard Fernand Durbec;"";13013;MARSEILLE 13E ARRONDISSEMENT;15/11/2021;En intérieur;RPUB_145017.pdf;Oui;1.17;"Etablissement ouvert au public (Ecole, Et Soins, Gare…)";EXEM
171687;5.380282;43.274942;"43°16'29.791""N 5°22'49.015""E";13208;Avenue Ferdinand Flotte;"";13008;MARSEILLE 8E ARRONDISSEMENT;16/12/2021;En extérieur;RPUB_145016.pdf;Oui;0.17;"Etablissement ouvert au public (Ecole, Et Soins, Gare…)";EXEM
171689;5.404522;43.317778;"43°19'4.001""N 5°24'16.279""E";13213;Avenue de Sant Just;"";13013;MARSEILLE 13E ARRONDISSEMENT;16/12/2021;En intérieur;RPUB_145015.pdf;Oui;0.24;"Etablissement ouvert au public (Ecole, Et Soins, Gare…)";EXEM
171691;5.45763;43.32243;"43°19'20.748""N 5°27'27.468""E";13213;Avenue des Poilus;"";13013;MARSEILLE 13E ARRONDISSEMENT;16/12/2021;En extérieur;RPUB_145014.pdf;Oui;1.46;"Etablissement ouvert au public (Ecole, Et Soins, Gare…)";EXEM
171693;5.367139;43.306556;"43°18'23.602""N 5°22'1.700""E";13055;Boulevard DE DUNKERQUE;"";13002;MARSEILLE;15/12/2021;En intérieur;RPUB_145007.pdf;Oui;0.3;Locaux professionnels non accessibles au public;APAVE Parisienne - Paris 17
171695;5.389353;43.338382;"43°20'18.175""N 5°23'21.671""E";13214;Boulevard Ricoux;"";13014;MARSEILLE 14E ARRONDISSEMENT;09/11/2021;En intérieur;RPUB_145059.pdf;Oui;0.38;"Etablissement ouvert au public (Ecole, Et Soins, Gare…)";EXEM
171696;5.454304;43.3337;"43°20'1.320""N 5°27'15.494""E";13213;Boulevard Marcel Delprat;"";13013;MARSEILLE 13E ARRONDISSEMENT;17/12/2021;En intérieur;RPUB_145047.pdf;Oui;0.23;"Etablissement ouvert au public (Ecole, Et Soins, Gare…)";EXEM
171697;5.519664;43.300228;"43°18'0.821""N 5°31'10.790""E";13211;Boulevard Notre Dame;"";13011;MARSEILLE 11E ARRONDISSEMENT;13/12/2021;En extérieur;RPUB_145055.pdf;Oui;0.57;"Etablissement ouvert au public (Ecole, Et Soins, Gare…)";EXEM
171698;5.439262;43.357513;"43°21'27.047""N 5°26'21.343""E";13213;Chemin de Palama;"";13013;MARSEILLE 13E ARRONDISSEMENT;15/11/2021;En extérieur;RPUB_145061.pdf;Oui;0.27;"Etablissement ouvert au public (Ecole, Et Soins, Gare…)";EXEM
171701;5.341051;43.369072;"43°22'8.659""N 5°20'27.784""E";13215;Chemin de Bernex;"";13015;MARSEILLE 15E ARRONDISSEMENT;23/11/2021;En extérieur;RPUB_145065.pdf;Oui;1.03;"Etablissement ouvert au public (Ecole, Et Soins, Gare…)";EXEM
171702;5.3814;43.322069;"43°19'19.448""N 5°22'53.040""E";13214;Chemin de Gibbes;"";13014;MARSEILLE 14E ARRONDISSEMENT;09/11/2021;En intérieur;RPUB_145066.pdf;Oui;1.02;"Etablissement ouvert au public (Ecole, Et Soins, Gare…)";EXEM
171703;5.420932;43.339599;"43°20'22.556""N 5°25'15.355""E";13213;Chemin de Notre Dame de Consolation;"";13013;MARSEILLE 13E ARRONDISSEMENT;15/11/2021;En extérieur;RPUB_145060.pdf;Oui;0.65;"Etablissement ouvert au public (Ecole, Et Soins, Gare…)";EXEM
171707;5.397043;43.275505;"43°16'31.818""N 5°23'49.355""E";13208;Boulevard Rabatau;"";13008;MARSEILLE 8E ARRONDISSEMENT;16/12/2021;En extérieur;RPUB_145058.pdf;Oui;0.57;"Etablissement ouvert au public (Ecole, Et Soins, Gare…)";EXEM
171710;5.440357;43.326497;"43°19'35.389""N 5°26'25.285""E";13213;Avenue des Olives;"";13013;MARSEILLE 13E ARRONDISSEMENT;16/12/2021;En intérieur;RPUB_145013.pdf;Oui;0.2;"Etablissement ouvert au public (Ecole, Et Soins, Gare…)";EXEM
171712;5.364633;43.373338;"43°22'24.017""N 5°21'52.679""E";13215;Chemin de la Martine;"";13015;MARSEILLE 15E ARRONDISSEMENT;25/11/2021;En extérieur;RPUB_145068.pdf;Oui;1.19;"Etablissement ouvert au public (Ecole, Et Soins, Gare…)";EXEM
171713;5.380232;43.30884;"43°18'31.824""N 5°22'48.835""E";13203;Boulevard National;"";13003;MARSEILLE 3E ARRONDISSEMENT;19/11/2021;En intérieur;RPUB_145053.pdf;Oui;0.55;"Etablissement ouvert au public (Ecole, Et Soins, Gare…)";EXEM
171714;5.372593;43.388224;"43°23'17.606""N 5°22'21.335""E";13215;Chemin de la Bigote;"";13015;MARSEILLE 15E ARRONDISSEMENT;25/11/2021;En extérieur;RPUB_145067.pdf;Oui;0.35;"Etablissement ouvert au public (Ecole, Et Soins, Gare…)";EXEM
171715;5.371792;43.243478;"43°14'36.521""N 5°22'18.451""E";13208;Boulevard Piot;"";13008;MARSEILLE 8E ARRONDISSEMENT;03/11/2021;En extérieur;RPUB_145057.pdf;Oui;2.26;"Etablissement ouvert au public (Ecole, Et Soins, Gare…)";EXEM
171716;5.417728;43.344165;"43°20'38.994""N 5°25'3.821""E";13213;Chemin de Saint-Mitre à Four de Buze;"";13013;MARSEILLE 13E ARRONDISSEMENT;15/11/2021;En extérieur;RPUB_145063.pdf;Oui;0.22;"Etablissement ouvert au public (Ecole, Et Soins, Gare…)";EXEM
171717;5.357552;43.342643;"43°20'33.515""N 5°21'27.187""E";13215;Campagne Lévêque;"";13015;MARSEILLE 15E ARRONDISSEMENT;14/12/2021;En extérieur;RPUB_145054.pdf;Oui;1.67;"Etablissement ouvert au public (Ecole, Et Soins, Gare…)";EXEM
171719;5.456021;43.33189;"43°19'54.804""N 5°27'21.676""E";13213;Avenue Fournacle;"";13013;MARSEILLE 13E ARRONDISSEMENT;17/12/2021;En intérieur;RPUB_145044.pdf;Oui;0.23;"Etablissement ouvert au public (Ecole, Et Soins, Gare…)";EXEM
171720;5.391365;43.323601;"43°19'24.964""N 5°23'28.914""E";13214;Chemin de Sainte Marthe;"";13014;MARSEILLE 14E ARRONDISSEMENT;09/11/2021;En intérieur;RPUB_145064.pdf;Oui;0.71;"Etablissement ouvert au public (Ecole, Et Soins, Gare…)";EXEM
171722;5.411925;43.320089;"43°19'12.320""N 5°24'42.930""E";13213;Boulevard Barry;"";13013;MARSEILLE 13E ARRONDISSEMENT;17/12/2021;En extérieur;RPUB_145046.pdf;Oui;0.91;"Etablissement ouvert au public (Ecole, Et Soins, Gare…)";EXEM
171723;5.405638;43.339373;"43°20'21.743""N 5°24'20.297""E";13214;Boulevard Notre Dame de Santa Cruz;"";13014;MARSEILLE 14E ARRONDISSEMENT;08/12/2021;En extérieur;RPUB_145056.pdf;Oui;0.26;"Etablissement ouvert au public (Ecole, Et Soins, Gare…)";EXEM
171724;5.416081;43.27176;"43°16'18.336""N 5°24'57.892""E";13210;Boulevard Romain Rolland;"";13010;MARSEILLE 10E ARRONDISSEMENT;04/11/2021;En intérieur;RPUB_145050.pdf;Oui;0.43;"Etablissement ouvert au public (Ecole, Et Soins, Gare…)";EXEM
171727;5.37589;43.344873;"43°20'41.543""N 5°22'33.204""E";13215;Boulevard Simon Bolivar;"";13015;MARSEILLE 15E ARRONDISSEMENT;13/12/2021;En intérieur;RPUB_145051.pdf;Oui;0.2;"Etablissement ouvert au public (Ecole, Et Soins, Gare…)";EXEM
171728;5.456836;43.33178;"43°19'54.408""N 5°27'24.610""E";13213;Avenue Fournacle;"";13013;MARSEILLE 13E ARRONDISSEMENT;17/12/2021;En intérieur;RPUB_145045.pdf;Oui;0.24;"Etablissement ouvert au public (Ecole, Et Soins, Gare…)";EXEM
171729;5.415552;43.27551;"43°16'31.836""N 5°24'55.987""E";13210;Boulevard Romain Rolland;"";13010;MARSEILLE 10E ARRONDISSEMENT;16/12/2021;En extérieur;RPUB_145049.pdf;Oui;1.72;"Etablissement ouvert au public (Ecole, Et Soins, Gare…)";EXEM
171731;5.380018;43.346895;"43°20'48.822""N 5°22'48.065""E";13214;Boulevard Roland Dorgeles;"";13014;MARSEILLE 14E ARRONDISSEMENT;09/11/2021;En extérieur;RPUB_145048.pdf;Oui;0.41;"Etablissement ouvert au public (Ecole, Et Soins, Gare…)";EXEM
171732;5.390077;43.328577;"43°19'42.877""N 5°23'24.277""E";13214;Rue Font-Vert;"";13014;MARSEILLE 14E ARRONDISSEMENT;08/11/2021;En intérieur;RPUB_145062.pdf;Oui;1.1;"Etablissement ouvert au public (Ecole, Et Soins, Gare…)";EXEM
171733;5.373237;43.282267;"43°16'56.161""N 5°22'23.653""E";13206;Boulevard Vauban;"";13006;MARSEILLE 6E ARRONDISSEMENT;09/12/2021;En extérieur;RPUB_145052.pdf;Oui;0.26;"Etablissement ouvert au public (Ecole, Et Soins, Gare…)";EXEM
171735;5.382852;43.290443;"43°17'25.595""N 5°22'58.267""E";13206;Rue Albert Chabanon;"";13006;MARSEILLE 6E ARRONDISSEMENT;23/11/2021;En intérieur;RPUB_145121.pdf;Oui;0.45;"Etablissement ouvert au public (Ecole, Et Soins, Gare…)";EXEM
171736;5.406325;43.270394;"43°16'13.418""N 5°24'22.770""E";13209;Boulevard Dromel;"";13009;MARSEILLE 9E ARRONDISSEMENT;17/12/2021;En intérieur;RPUB_145085.pdf;Oui;0.21;"Etablissement ouvert au public (Ecole, Et Soins, Gare…)";EXEM
171737;5.383794;43.343712;"43°20'37.363""N 5°23'1.658""E";13214;Chemin de Saint Joseph a Sainte Marthe;"";13014;MARSEILLE 14E ARRONDISSEMENT;08/11/2021;En intérieur;RPUB_145092.pdf;Oui;0.78;"Etablissement ouvert au public (Ecole, Et Soins, Gare…)";EXEM
171739;5.386967;43.264835;"43°15'53.406""N 5°23'13.081""E";13208;Rue Etienne Milan;"";13008;MARSEILLE 8E ARRONDISSEMENT;14/12/2021;En extérieur;RPUB_145130.pdf;Oui;0.22;"Etablissement ouvert au public (Ecole, Et Soins, Gare…)";EXEM
171742;5.398324;43.297572;"43°17'51.259""N 5°23'53.966""E";13205;Square Sidi Brahim;"";13005;MARSEILLE 5E ARRONDISSEMENT;25/11/2021;En intérieur;RPUB_145117.pdf;Oui;0.34;"Etablissement ouvert au public (Ecole, Et Soins, Gare…)";EXEM
171743;5.393322;43.302836;"43°18'10.210""N 5°23'35.959""E";13201;Rue Consolat;"";13001;MARSEILLE 1ER ARRONDISSEMENT;06/12/2021;En intérieur;RPUB_145126.pdf;Oui;0.95;"Etablissement ouvert au public (Ecole, Et Soins, Gare…)";EXEM
171747;5.386829;43.29068;"43°17'26.448""N 5°23'12.584""E";13206;Rue Eydoux;"";13006;MARSEILLE 6E ARRONDISSEMENT;15/12/2021;En intérieur;RPUB_145132.pdf;Oui;4.3;"Etablissement ouvert au public (Ecole, Et Soins, Gare…)";EXEM
171748;5.38624;43.297792;"43°17'52.051""N 5°23'10.464""E";13201;Rue Barthélémy;"";13001;MARSEILLE 1ER ARRONDISSEMENT;22/11/2021;En intérieur;RPUB_145115.pdf;Oui;0.42;"Etablissement ouvert au public (Ecole, Et Soins, Gare…)";EXEM
171749;5.35886;43.285969;"43°17'9.488""N 5°21'31.896""E";13207;Rue Chateaubriand;"";13007;MARSEILLE 7E ARRONDISSEMENT;13/12/2021;En intérieur;RPUB_145128.pdf;Oui;0.19;"Etablissement ouvert au public (Ecole, Et Soins, Gare…)";EXEM
171750;5.398985;43.297323;"43°17'50.363""N 5°23'56.346""E";13205;Square Sidi Brahim;"";13005;MARSEILLE 5E ARRONDISSEMENT;25/11/2021;En intérieur;RPUB_145114.pdf;Oui;1.22;"Etablissement ouvert au public (Ecole, Et Soins, Gare…)";EXEM
171751;5.38629;43.264745;"43°15'53.082""N 5°23'10.644""E";13208;Rue Etienne Milan;"";13008;MARSEILLE 8E ARRONDISSEMENT;14/12/2021;En extérieur;RPUB_145129.pdf;Oui;0.19;"Etablissement ouvert au public (Ecole, Et Soins, Gare…)";EXEM
171752;5.406046;43.270776;"43°16'14.794""N 5°24'21.766""E";13209;Boulevard Dromel;"";13009;MARSEILLE 9E ARRONDISSEMENT;17/12/2021;En extérieur;RPUB_145084.pdf;Oui;0.56;"Etablissement ouvert au public (Ecole, Et Soins, Gare…)";EXEM
171754;5.390618;43.32812;"43°19'41.232""N 5°23'26.225""E";13214;Rue Font-Vert;"";13014;MARSEILLE 14E ARRONDISSEMENT;08/11/2021;En extérieur;RPUB_145094.pdf;Oui;1.41;"Etablissement ouvert au public (Ecole, Et Soins, Gare…)";EXEM
171755;5.423985;43.324108;"43°19'26.789""N 5°25'26.346""E";13213;Avenue de Frais Vallon;"";13013;MARSEILLE 13E ARRONDISSEMENT;03/12/2021;En intérieur;RPUB_145123.pdf;Oui;0.95;"Etablissement ouvert au public (Ecole, Et Soins, Gare…)";EXEM
171758;5.384965;43.291009;"43°17'27.632""N 5°23'5.874""E";13206;Rue Perrin Solliers;"";13006;MARSEILLE 6E ARRONDISSEMENT;23/11/2021;En extérieur;RPUB_145116.pdf;Oui;1.63;"Etablissement ouvert au public (Ecole, Et Soins, Gare…)";EXEM
171767;5.408256;43.267753;"43°16'3.911""N 5°24'29.722""E";13209;Boulevard de Sainte Marguerite;"";13009;MARSEILLE 9E ARRONDISSEMENT;17/12/2021;En intérieur;RPUB_145086.pdf;Oui;0.4;"Etablissement ouvert au public (Ecole, Et Soins, Gare…)";EXEM
171768;5.410531;43.271276;"43°16'16.594""N 5°24'37.912""E";13209;Boulevard Romain Rolland;"";13009;MARSEILLE 9E ARRONDISSEMENT;17/12/2021;En intérieur;RPUB_145087.pdf;Oui;1.34;"Etablissement ouvert au public (Ecole, Et Soins, Gare…)";EXEM
171769;5.391197;43.293934;"43°17'38.162""N 5°23'28.309""E";13205;Rue des Clairistes;"";13005;MARSEILLE 5E ARRONDISSEMENT;25/11/2021;En intérieur;RPUB_145122.pdf;Oui;0.47;"Etablissement ouvert au public (Ecole, Et Soins, Gare…)";EXEM
171770;5.385017;43.301774;"43°18'6.386""N 5°23'6.061""E";13201;Rue Flegier;"";13001;MARSEILLE 1ER ARRONDISSEMENT;22/11/2021;En intérieur;RPUB_145119.pdf;Oui;4.55;"Etablissement ouvert au public (Ecole, Et Soins, Gare…)";EXEM
171772;5.36711;43.29762;"43°17'51.432""N 5°22'1.596""E";13202;Montée des Accoules;"";13002;MARSEILLE 2E ARRONDISSEMENT;17/12/2021;En intérieur;RPUB_145120.pdf;Oui;0.35;"Etablissement ouvert au public (Ecole, Et Soins, Gare…)";EXEM
171774;5.386818;43.290822;"43°17'26.959""N 5°23'12.545""E";13206;Rue Eydoux;"";13006;MARSEILLE 6E ARRONDISSEMENT;15/12/2021;En extérieur;RPUB_145131.pdf;Oui;1.03;"Etablissement ouvert au public (Ecole, Et Soins, Gare…)";EXEM
171775;5.377271;43.350226;"43°21'0.814""N 5°22'38.176""E";13215;Chemin de Sainte Antoine a Saint Joseph;"";13015;MARSEILLE 15E ARRONDISSEMENT;13/12/2021;En intérieur;RPUB_145090.pdf;Oui;0.25;"Etablissement ouvert au public (Ecole, Et Soins, Gare…)";EXEM
171776;5.391888;43.268463;"43°16'6.467""N 5°23'30.797""E";13208;Rue Raphael;"";13008;MARSEILLE 8E ARRONDISSEMENT;14/12/2021;En extérieur;RPUB_145124.pdf;Oui;1.18;"Etablissement ouvert au public (Ecole, Et Soins, Gare…)";EXEM
171777;5.392687;43.268537;"43°16'6.733""N 5°23'33.673""E";13208;Rue Raphael;"";13008;MARSEILLE 8E ARRONDISSEMENT;14/12/2021;En extérieur;RPUB_145125.pdf;Oui;0.99;"Etablissement ouvert au public (Ecole, Et Soins, Gare…)";EXEM
171781;5.416452;43.275714;"43°16'32.570""N 5°24'59.227""E";13210;Boulevard Romain Rolland;"";13010;MARSEILLE 10E ARRONDISSEMENT;17/12/2021;En extérieur;RPUB_145088.pdf;Oui;1.39;"Etablissement ouvert au public (Ecole, Et Soins, Gare…)";EXEM
171783;5.377209;43.287283;"43°17'14.219""N 5°22'37.952""E";13206;Rue Breteuil;"";13006;MARSEILLE 6E ARRONDISSEMENT;23/11/2021;En intérieur;RPUB_145118.pdf;Oui;0.65;"Etablissement ouvert au public (Ecole, Et Soins, Gare…)";EXEM
171784;5.332704;43.358043;"43°21'28.955""N 5°19'57.734""E";13216;Chemin de Saint Henri;"";13016;MARSEILLE 16E ARRONDISSEMENT;22/11/2021;En extérieur;RPUB_145091.pdf;Oui;1.12;"Etablissement ouvert au public (Ecole, Et Soins, Gare…)";EXEM
171787;5.379567;43.300236;"43°18'0.850""N 5°22'46.441""E";13201;Rue des Convalescents;"";13001;MARSEILLE 1ER ARRONDISSEMENT;06/12/2021;En intérieur;RPUB_145127.pdf;Oui;0.31;"Etablissement ouvert au public (Ecole, Et Soins, Gare…)";EXEM
171789;5.355599;43.349977;"43°20'59.917""N 5°21'20.156""E";13215;Chemin de Saint Louis au Rove;"";13015;MARSEILLE 15E ARRONDISSEMENT;13/12/2021;En extérieur;RPUB_145093.pdf;Oui;0.77;"Etablissement ouvert au public (Ecole, Et Soins, Gare…)";EXEM
171800;5.387365;43.297494;"43°17'50.978""N 5°23'14.514""E";13201;Rue Saint Savournin;"";13001;MARSEILLE 1ER ARRONDISSEMENT;13/12/2021;En intérieur;RPUB_145173.pdf;Oui;0.24;"Etablissement ouvert au public (Ecole, Et Soins, Gare…)";EXEM
171801;5.391583;43.289819;"43°17'23.348""N 5°23'29.699""E";13205;Rue de la Loubiere;"";13005;MARSEILLE 5E ARRONDISSEMENT;09/12/2021;En extérieur;RPUB_145165.pdf;Oui;0.2;"Etablissement ouvert au public (Ecole, Et Soins, Gare…)";EXEM
171803;5.388679;43.286424;"43°17'11.126""N 5°23'19.244""E";13206;Rue de Friedland;"";13006;MARSEILLE 6E ARRONDISSEMENT;16/12/2021;En intérieur;RPUB_145162.pdf;Oui;0.46;"Etablissement ouvert au public (Ecole, Et Soins, Gare…)";EXEM
171805;5.39363;43.278139;"43°16'41.300""N 5°23'37.068""E";13208;Rue Sainte Famille;"";13008;MARSEILLE 8E ARRONDISSEMENT;16/12/2021;En extérieur;RPUB_145171.pdf;Oui;0.41;"Etablissement ouvert au public (Ecole, Et Soins, Gare…)";EXEM
171810;5.366371;43.286765;"43°17'12.354""N 5°21'58.936""E";13207;Chemin du Roucas Blanc;"";13007;MARSEILLE 7E ARRONDISSEMENT;13/12/2021;En intérieur;RPUB_145170.pdf;Oui;0.96;"Etablissement ouvert au public (Ecole, Et Soins, Gare…)";EXEM
171812;5.393994;43.278116;"43°16'41.218""N 5°23'38.378""E";13208;Rue Roger Renzo;"";13008;MARSEILLE 8E ARRONDISSEMENT;16/12/2021;En extérieur;RPUB_145172.pdf;Oui;0.2;"Etablissement ouvert au public (Ecole, Et Soins, Gare…)";EXEM
171814;5.395489;43.303749;"43°18'13.496""N 5°23'43.760""E";13204;Impasse de Montbard;"";13004;MARSEILLE 4E ARRONDISSEMENT;10/12/2021;En extérieur;RPUB_145164.pdf;Oui;0.15;"Etablissement ouvert au public (Ecole, Et Soins, Gare…)";EXEM
171816;5.391884;43.289764;"43°17'23.150""N 5°23'30.782""E";13205;Rue de la Loubiere;"";13005;MARSEILLE 5E ARRONDISSEMENT;09/12/2021;En intérieur;RPUB_145166.pdf;Oui;0.17;"Etablissement ouvert au public (Ecole, Et Soins, Gare…)";EXEM
171818;5.40287;43.306209;"43°18'22.352""N 5°24'10.332""E";13204;Rue Sainte-Sophie;"";13004;MARSEILLE 4E ARRONDISSEMENT;10/12/2021;En extérieur;RPUB_145167.pdf;Oui;0.28;"Etablissement ouvert au public (Ecole, Et Soins, Gare…)";EXEM
171826;5.403106;43.306388;"43°18'22.997""N 5°24'11.182""E";13204;Rue Sainte-Sophie;"";13004;MARSEILLE 4E ARRONDISSEMENT;10/12/2021;En intérieur;RPUB_145168.pdf;Oui;0.9;"Etablissement ouvert au public (Ecole, Et Soins, Gare…)";EXEM
171830;5.374462;43.298921;"43°17'56.116""N 5°22'28.063""E";13201;"Place de l'Hotel des Postes";"";13001;MARSEILLE 1ER ARRONDISSEMENT;13/12/2021;En extérieur;RPUB_145163.pdf;Oui;0.8;"Etablissement ouvert au public (Ecole, Et Soins, Gare…)";EXEM
171836;5.379288;43.299791;"43°17'59.248""N 5°22'45.437""E";13201;Rue Parmentier;"";13001;MARSEILLE 1ER ARRONDISSEMENT;06/12/2021;En intérieur;RPUB_145169.pdf;Oui;0.22;"Etablissement ouvert au public (Ecole, Et Soins, Gare…)";EXEM
171842;5.390167;43.303859;"43°18'13.892""N 5°23'24.601""E";13201;Rue Commandant Mages;"";13001;MARSEILLE 1ER ARRONDISSEMENT;06/12/2021;En extérieur;RPUB_145205.pdf;Oui;1.69;"Etablissement ouvert au public (Ecole, Et Soins, Gare…)";EXEM
171857;5.360277;43.335214;"43°20'6.770""N 5°21'36.997""E";13215;Boulevard Viala;"";13015;MARSEILLE 15E ARRONDISSEMENT;14/12/2021;En intérieur;RPUB_145186.pdf;Oui;0.23;"Etablissement ouvert au public (Ecole, Et Soins, Gare…)";EXEM
171863;5.35989;43.383343;"43°23'0.035""N 5°21'35.604""E";13215;Chemin de Mimet;"";13015;MARSEILLE 15E ARRONDISSEMENT;25/11/2021;En intérieur;RPUB_145187.pdf;Oui;0.35;"Etablissement ouvert au public (Ecole, Et Soins, Gare…)";EXEM
171877;5.379433;43.300641;"43°18'2.308""N 5°22'45.959""E";13201;Rue Maurice Korsec;"";13001;MARSEILLE 1ER ARRONDISSEMENT;13/12/2021;En extérieur;RPUB_145224.pdf;Oui;1.45;"Etablissement ouvert au public (Ecole, Et Soins, Gare…)";EXEM
171880;5.393615;43.306326;"43°18'22.774""N 5°23'37.014""E";13204;Place Leverrier;"";13004;MARSEILLE 4E ARRONDISSEMENT;10/12/2021;En intérieur;RPUB_145225.pdf;Oui;1.5;"Etablissement ouvert au public (Ecole, Et Soins, Gare…)";EXEM
172016;5.429588;43.280922;"43°16'51.319""N 5°25'46.517""E";13210;Rue Pierre Doize;"";13010;MARSEILLE 10E ARRONDISSEMENT;03/01/2022;En intérieur;RPUB_145356.pdf;Oui;0.22;"Etablissement ouvert au public (Ecole, Et Soins, Gare…)";EXEM
172019;5.404815;43.285908;"43°17'9.269""N 5°24'17.334""E";13210;Avenue de la Timone;"";13010;MARSEILLE 10E ARRONDISSEMENT;03/01/2022;En extérieur;RPUB_145359.pdf;Oui;0.52;"Etablissement ouvert au public (Ecole, Et Soins, Gare…)";EXEM
172020;5.406883;43.281892;"43°16'54.811""N 5°24'24.779""E";13210;Rue Laugier;"";13010;MARSEILLE 10E ARRONDISSEMENT;03/01/2022;En extérieur;RPUB_145368.pdf;Oui;0.99;"Etablissement ouvert au public (Ecole, Et Soins, Gare…)";EXEM
172021;5.401769;43.229255;"43°13'45.318""N 5°24'6.368""E";13209;Chemin de Sormiou;"";13009;MARSEILLE 9E ARRONDISSEMENT;03/01/2022;En extérieur;RPUB_145366.pdf;Oui;0.27;"Etablissement ouvert au public (Ecole, Et Soins, Gare…)";EXEM
172022;5.397849;43.281673;"43°16'54.023""N 5°23'52.256""E";13210;Rue Charles Cerrato;"";13010;MARSEILLE 10E ARRONDISSEMENT;03/01/2022;En intérieur;RPUB_145367.pdf;Oui;0.16;"Etablissement ouvert au public (Ecole, Et Soins, Gare…)";EXEM
172023;5.385125;43.307585;"43°18'27.306""N 5°23'6.450""E";13203;Rue Bugeaud;"";13003;MARSEILLE 3E ARRONDISSEMENT;05/01/2022;En extérieur;RPUB_145365.pdf;Oui;0.35;"Etablissement ouvert au public (Ecole, Et Soins, Gare…)";EXEM
172024;5.400929;43.249784;"43°14'59.222""N 5°24'3.344""E";13209;Rue Francois Blanc;"";13009;MARSEILLE 9E ARRONDISSEMENT;04/01/2022;En extérieur;RPUB_145374.pdf;Oui;1.93;"Etablissement ouvert au public (Ecole, Et Soins, Gare…)";EXEM
172025;5.386352;43.313099;"43°18'47.156""N 5°23'10.867""E";13203;Rue du Docteur Léon Perrin;"";13003;MARSEILLE 3E ARRONDISSEMENT;04/01/2022;En extérieur;RPUB_145363.pdf;Oui;0.57;"Etablissement ouvert au public (Ecole, Et Soins, Gare…)";EXEM
172026;5.373606;43.317536;"43°19'3.130""N 5°22'24.982""E";13203;Rue Félix Pyat;"";13003;MARSEILLE 3E ARRONDISSEMENT;03/01/2022;En intérieur;RPUB_145375.pdf;Oui;1.71;"Etablissement ouvert au public (Ecole, Et Soins, Gare…)";EXEM
172027;5.40817;43.307224;"43°18'26.006""N 5°24'29.412""E";13204;Boulevard de Roux;"";13004;MARSEILLE 4E ARRONDISSEMENT;05/01/2022;En extérieur;RPUB_145360.pdf;Oui;0.17;"Etablissement ouvert au public (Ecole, Et Soins, Gare…)";EXEM
172028;5.409847;43.234403;"43°14'3.851""N 5°24'35.449""E";13209;Traverse Colgate;"";13009;MARSEILLE 9E ARRONDISSEMENT;04/01/2022;En extérieur;RPUB_145362.pdf;Oui;2.54;"Etablissement ouvert au public (Ecole, Et Soins, Gare…)";EXEM
172029;5.387914;43.31208;"43°18'43.488""N 5°23'16.490""E";13203;Place Bernard Cadenat;"";13003;MARSEILLE 3E ARRONDISSEMENT;04/01/2022;En intérieur;RPUB_145364.pdf;Oui;1.07;"Etablissement ouvert au public (Ecole, Et Soins, Gare…)";EXEM
172030;5.378357;43.315839;"43°18'57.020""N 5°22'42.085""E";13203;Passage Leo Ferre;"";13003;MARSEILLE 3E ARRONDISSEMENT;04/01/2022;En intérieur;RPUB_145372.pdf;Oui;0.26;"Etablissement ouvert au public (Ecole, Et Soins, Gare…)";EXEM
172031;5.401862;43.229781;"43°13'47.212""N 5°24'6.703""E";13209;Chemin de Sormiou;"";13009;MARSEILLE 9E ARRONDISSEMENT;03/01/2022;En extérieur;RPUB_145371.pdf;Oui;0.24;"Etablissement ouvert au public (Ecole, Et Soins, Gare…)";EXEM
172033;5.4092;43.276338;"43°16'34.817""N 5°24'33.120""E";13210;Rue Alfred Curtel;"";13010;MARSEILLE 10E ARRONDISSEMENT;04/01/2022;En extérieur;RPUB_145369.pdf;Oui;0.4;"Etablissement ouvert au public (Ecole, Et Soins, Gare…)";EXEM
172034;5.383559;43.308409;"43°18'30.272""N 5°23'0.812""E";13203;Rue Massena;"";13003;MARSEILLE 3E ARRONDISSEMENT;04/01/2022;En extérieur;RPUB_145370.pdf;Oui;0.68;"Etablissement ouvert au public (Ecole, Et Soins, Gare…)";EXEM
172035;5.411861;43.283938;"43°17'2.177""N 5°24'42.700""E";13210;Boulevard Mireille Lauze;"";13010;MARSEILLE 10E ARRONDISSEMENT;04/01/2022;En extérieur;RPUB_145361.pdf;Oui;0.87;"Etablissement ouvert au public (Ecole, Et Soins, Gare…)";EXEM
172036;5.433383;43.284297;"43°17'3.469""N 5°26'0.179""E";13210;Boulevard de Saint Loup;"";13010;MARSEILLE 10E ARRONDISSEMENT;06/01/2022;En extérieur;RPUB_145376.pdf;Oui;0.64;"Etablissement ouvert au public (Ecole, Et Soins, Gare…)";EXEM
172037;5.381257;43.309151;"43°18'32.944""N 5°22'52.525""E";13203;Rue Pommier;"";13003;MARSEILLE 3E ARRONDISSEMENT;05/01/2022;En extérieur;RPUB_145388.pdf;Oui;0.25;"Etablissement ouvert au public (Ecole, Et Soins, Gare…)";EXEM
172038;5.401604;43.249368;"43°14'57.725""N 5°24'5.774""E";13209;Rue Francois Blanc;"";13009;MARSEILLE 9E ARRONDISSEMENT;04/01/2022;En intérieur;RPUB_145382.pdf;Oui;3.01;"Etablissement ouvert au public (Ecole, Et Soins, Gare…)";EXEM
172039;5.381748;43.314847;"43°18'53.449""N 5°22'54.293""E";13203;"Rue du Jet d'Eau";"";13003;MARSEILLE 3E ARRONDISSEMENT;04/01/2022;En intérieur;RPUB_145389.pdf;Oui;2.3;"Etablissement ouvert au public (Ecole, Et Soins, Gare…)";EXEM
172040;5.421661;43.248357;"43°14'54.085""N 5°25'17.980""E";13209;Chemin Jean Roubin;"";13009;MARSEILLE 9E ARRONDISSEMENT;04/01/2022;En extérieur;RPUB_145385.pdf;Oui;0.66;"Etablissement ouvert au public (Ecole, Et Soins, Gare…)";EXEM
172041;5.39953;43.30084;"43°18'3.024""N 5°23'58.308""E";13204;Rue Dr Acquaviva;"";13004;MARSEILLE 4E ARRONDISSEMENT;05/01/2022;En extérieur;RPUB_145393.pdf;Oui;1.06;Rue / Route / Parking;EXEM
172042;5.408326;43.254154;"43°15'14.954""N 5°24'29.974""E";13209;Chemin Joseph Aiguier;"";13009;MARSEILLE 9E ARRONDISSEMENT;05/01/2022;En intérieur;RPUB_145380.pdf;Oui;0.35;"Etablissement ouvert au public (Ecole, Et Soins, Gare…)";EXEM
172043;5.428448;43.247875;"43°14'52.350""N 5°25'42.413""E";13209;Rue Dominique Piazza;"";13009;MARSEILLE 9E ARRONDISSEMENT;05/01/2022;En extérieur;RPUB_145394.pdf;Oui;0.47;Rue / Route / Parking;EXEM
172045;5.378382;43.307371;"43°18'26.536""N 5°22'42.175""E";13203;Rue du Sud et du Père Louis Therobe;"";13003;MARSEILLE 3E ARRONDISSEMENT;05/01/2022;En extérieur;RPUB_145387.pdf;Oui;0.3;"Etablissement ouvert au public (Ecole, Et Soins, Gare…)";EXEM
172046;5.433383;43.281525;"43°16'53.490""N 5°26'0.179""E";13210;Rue Gabriel Faure;"";13010;MARSEILLE 10E ARRONDISSEMENT;04/01/2022;En extérieur;RPUB_145390.pdf;Oui;0.97;"Etablissement ouvert au public (Ecole, Et Soins, Gare…)";EXEM
172047;5.407805;43.313243;"43°18'47.675""N 5°24'28.098""E";13204;Rue Vincent Faita;"";13004;MARSEILLE 4E ARRONDISSEMENT;05/01/2022;En extérieur;RPUB_145378.pdf;Oui;2.45;"Etablissement ouvert au public (Ecole, Et Soins, Gare…)";EXEM
172048;5.440893;43.281556;"43°16'53.602""N 5°26'27.215""E";13210;Chemin de la Vabarelle à Saint Marcel;"";13010;MARSEILLE 10E ARRONDISSEMENT;06/01/2022;En extérieur;RPUB_145377.pdf;Oui;0.21;"Etablissement ouvert au public (Ecole, Et Soins, Gare…)";EXEM
172049;5.39028;43.303733;"43°18'13.439""N 5°23'25.008""E";13201;Rue Commandant Mages;"";13001;MARSEILLE 1ER ARRONDISSEMENT;05/01/2022;En extérieur;RPUB_145391.pdf;Oui;2.45;Rue / Route / Parking;EXEM
172050;5.408609;43.254662;"43°15'16.783""N 5°24'30.992""E";13209;Chemin Joseph Aiguier;"";13009;MARSEILLE 9E ARRONDISSEMENT;05/01/2022;En intérieur;RPUB_145379.pdf;Oui;0.41;"Etablissement ouvert au public (Ecole, Et Soins, Gare…)";EXEM
172051;5.420588;43.248032;"43°14'52.915""N 5°25'14.117""E";13209;Chemin Jean Roubin;"";13009;MARSEILLE 9E ARRONDISSEMENT;04/01/2022;En extérieur;RPUB_145386.pdf;Oui;0.71;"Etablissement ouvert au public (Ecole, Et Soins, Gare…)";EXEM
172052;5.436108;43.272839;"43°16'22.220""N 5°26'9.989""E";13210;Traverse de Chant Perdrix;"";13010;MARSEILLE 10E ARRONDISSEMENT;04/01/2022;En extérieur;RPUB_145384.pdf;Oui;0.93;"Etablissement ouvert au public (Ecole, Et Soins, Gare…)";EXEM
172053;5.378188;43.298993;"43°17'56.375""N 5°22'41.477""E";13201;Place René-Sarvil Chansonnier;"";13001;MARSEILLE 1ER ARRONDISSEMENT;05/01/2022;En extérieur;RPUB_145392.pdf;Oui;1.26;Rue / Route / Parking;EXEM
172054;5.40978;43.245007;"43°14'42.025""N 5°24'35.208""E";13209;Rue Henri Tomasi;"";13009;MARSEILLE 9E ARRONDISSEMENT;05/01/2022;En extérieur;RPUB_145395.pdf;Oui;0.5;Rue / Route / Parking;EXEM
172055;5.37313;43.237442;"43°14'14.791""N 5°22'23.268""E";13208;Traverse Prat;"";13008;MARSEILLE 8E ARRONDISSEMENT;03/01/2022;En extérieur;RPUB_145383.pdf;Oui;0.91;"Etablissement ouvert au public (Ecole, Et Soins, Gare…)";EXEM
172056;5.399048;43.288853;"43°17'19.871""N 5°23'56.573""E";13205;Rue Sainte-Cécile;"";13005;MARSEILLE 5E ARRONDISSEMENT;06/01/2022;En extérieur;RPUB_145402.pdf;Oui;1.47;"Etablissement ouvert au public (Ecole, Et Soins, Gare…)";EXEM
172057;5.511475;43.301252;"43°18'4.507""N 5°30'41.310""E";13211;Montée des Camoins;"";13011;MARSEILLE 11E ARRONDISSEMENT;06/01/2022;En extérieur;RPUB_145398.pdf;Oui;0.19;"Etablissement ouvert au public (Ecole, Et Soins, Gare…)";EXEM
172058;5.512205;43.313393;"43°18'48.215""N 5°30'43.938""E";13211;Route de la Treille;"";13011;MARSEILLE 11E ARRONDISSEMENT;06/01/2022;En extérieur;RPUB_145403.pdf;Oui;0.2;"Etablissement ouvert au public (Ecole, Et Soins, Gare…)";EXEM
172059;5.395407;43.294069;"43°17'38.648""N 5°23'43.465""E";13205;Rue Gillibert;"";13005;MARSEILLE 5E ARRONDISSEMENT;06/01/2022;En extérieur;RPUB_145404.pdf;Oui;0.52;"Etablissement ouvert au public (Ecole, Et Soins, Gare…)";EXEM
172060;5.511832;43.300673;"43°18'2.423""N 5°30'42.595""E";13211;"Montée d'Eoures";"";13011;MARSEILLE 11E ARRONDISSEMENT;06/01/2022;En extérieur;RPUB_145397.pdf;Oui;0.18;"Etablissement ouvert au public (Ecole, Et Soins, Gare…)";EXEM
172061;5.430422;43.271011;"43°16'15.640""N 5°25'49.519""E";13210;Rue Andre Audoli;"";13010;MARSEILLE 10E ARRONDISSEMENT;06/01/2022;En intérieur;RPUB_145408.pdf;Oui;0.22;"Etablissement ouvert au public (Ecole, Et Soins, Gare…)";EXEM
172062;5.503308;43.294094;"43°17'38.738""N 5°30'11.909""E";13211;Traverse de la Buzine;"";13011;MARSEILLE 11E ARRONDISSEMENT;06/01/2022;En extérieur;RPUB_145399.pdf;Oui;0.21;"Etablissement ouvert au public (Ecole, Et Soins, Gare…)";EXEM
172063;5.389395;43.298267;"43°17'53.761""N 5°23'21.822""E";13205;Rue de Tivoli;"";13005;MARSEILLE 5E ARRONDISSEMENT;06/01/2022;En extérieur;RPUB_145401.pdf;Oui;0.34;"Etablissement ouvert au public (Ecole, Et Soins, Gare…)";EXEM
172064;5.408454;43.293998;"43°17'38.393""N 5°24'30.434""E";13205;Rue Pascal Ruinat;"";13005;MARSEILLE 5E ARRONDISSEMENT;06/01/2022;En extérieur;RPUB_145406.pdf;Oui;0.27;"Etablissement ouvert au public (Ecole, Et Soins, Gare…)";EXEM
172066;5.465189;43.286826;"43°17'12.574""N 5°27'54.680""E";13211;Rue de Queylar;"";13011;MARSEILLE 11E ARRONDISSEMENT;06/01/2022;En intérieur;RPUB_145405.pdf;Oui;0.77;"Etablissement ouvert au public (Ecole, Et Soins, Gare…)";EXEM
172067;5.398508;43.292432;"43°17'32.755""N 5°23'54.629""E";13205;Rue Saint Pierre;"";13005;MARSEILLE 5E ARRONDISSEMENT;06/01/2022;En extérieur;RPUB_145400.pdf;Oui;1.56;"Etablissement ouvert au public (Ecole, Et Soins, Gare…)";EXEM
172068;5.439284;43.280259;"43°16'48.932""N 5°26'21.422""E";13210;Rue Saint Augustin;"";13010;MARSEILLE 10E ARRONDISSEMENT;06/01/2022;En intérieur;RPUB_145407.pdf;Oui;0.23;"Etablissement ouvert au public (Ecole, Et Soins, Gare…)";EXEM
172069;5.431838;43.275838;"43°16'33.017""N 5°25'54.617""E";13210;Traverse de Chante Perdrix;"";13010;MARSEILLE 10E ARRONDISSEMENT;07/01/2022;En intérieur;RPUB_145411.pdf;Oui;1.39;"Etablissement ouvert au public (Ecole, Et Soins, Gare…)";EXEM
172070;5.460849;43.284251;"43°17'3.304""N 5°27'39.056""E";13211;Rue de la Graniere;"";13011;MARSEILLE 11E ARRONDISSEMENT;07/01/2022;En intérieur;RPUB_145416.pdf;Oui;0.86;"Etablissement ouvert au public (Ecole, Et Soins, Gare…)";EXEM
172071;5.42038;43.270222;"43°16'12.799""N 5°25'13.368""E";13210;Boulevard Paul Claudel;"";13010;MARSEILLE 10E ARRONDISSEMENT;07/01/2022;En intérieur;RPUB_145410.pdf;Oui;0.43;"Etablissement ouvert au public (Ecole, Et Soins, Gare…)";EXEM
172072;5.447766;43.284941;"43°17'5.788""N 5°26'51.958""E";13211;Boulevard de la Valbarelle;"";13011;MARSEILLE 11E ARRONDISSEMENT;07/01/2022;En extérieur;RPUB_145409.pdf;Oui;0.36;"Etablissement ouvert au public (Ecole, Et Soins, Gare…)";EXEM
172073;5.374817;43.307937;"43°18'28.573""N 5°22'29.341""E";13203;Rue Kleber;"";13003;MARSEILLE 3E ARRONDISSEMENT;07/01/2022;En extérieur;RPUB_145414.pdf;Oui;0.36;"Etablissement ouvert au public (Ecole, Et Soins, Gare…)";EXEM
172074;5.374911;43.307664;"43°18'27.590""N 5°22'29.680""E";13203;Rue Kleber;"";13003;MARSEILLE 3E ARRONDISSEMENT;07/01/2022;En extérieur;RPUB_145413.pdf;Oui;1.44;"Etablissement ouvert au public (Ecole, Et Soins, Gare…)";EXEM
172075;5.372945;43.311829;"43°18'42.584""N 5°22'22.602""E";13203;Rue André Chamson;"";13003;MARSEILLE 3E ARRONDISSEMENT;07/01/2022;En extérieur;RPUB_145415.pdf;Oui;1.66;"Etablissement ouvert au public (Ecole, Et Soins, Gare…)";EXEM
172076;5.463445;43.286016;"43°17'9.658""N 5°27'48.402""E";13211;Rue Courencq;"";13011;MARSEILLE 11E ARRONDISSEMENT;07/01/2022;En extérieur;RPUB_145420.pdf;Oui;0.32;"Etablissement ouvert au public (Ecole, Et Soins, Gare…)";EXEM
172077;5.460913;43.28461;"43°17'4.596""N 5°27'39.287""E";13211;Traverse des Raymonds;"";13011;MARSEILLE 11E ARRONDISSEMENT;07/01/2022;En extérieur;RPUB_145417.pdf;Oui;0.47;"Etablissement ouvert au public (Ecole, Et Soins, Gare…)";EXEM
172078;5.456901;43.287046;"43°17'13.366""N 5°27'24.844""E";13211;Rue Gimon;"";13011;MARSEILLE 11E ARRONDISSEMENT;07/01/2022;En extérieur;RPUB_145418.pdf;Oui;1.07;"Etablissement ouvert au public (Ecole, Et Soins, Gare…)";EXEM
172079;5.431237;43.276026;"43°16'33.694""N 5°25'52.453""E";13210;Traverse de Chante Perdrix;"";13010;MARSEILLE 10E ARRONDISSEMENT;07/01/2022;En extérieur;RPUB_145412.pdf;Oui;1.66;"Etablissement ouvert au public (Ecole, Et Soins, Gare…)";EXEM
172080;5.40405;43.262956;"43°15'46.642""N 5°24'14.580""E";13209;Rue Aviateur Le Brix;"";13009;MARSEILLE 9E ARRONDISSEMENT;07/01/2022;En intérieur;RPUB_145419.pdf;Oui;1.06;"Etablissement ouvert au public (Ecole, Et Soins, Gare…)";EXEM
172085;5.375812;43.273339;"43°16'24.020""N 5°22'32.923""E";13208;Rue du Commandant Rolland;"";13008;MARSEILLE 8E ARRONDISSEMENT;10/01/2022;En intérieur;RPUB_145449.pdf;Oui;0.24;"Etablissement ouvert au public (Ecole, Et Soins, Gare…)";EXEM
172087;5.386713;43.272792;"43°16'22.051""N 5°23'12.167""E";13208;Rue Jean Mermoz;"";13008;MARSEILLE 8E ARRONDISSEMENT;10/01/2022;En intérieur;RPUB_145441.pdf;Oui;0.18;"Etablissement ouvert au public (Ecole, Et Soins, Gare…)";EXEM
172088;5.389903;43.286969;"43°17'13.088""N 5°23'23.651""E";13206;Rue du Lodi;"";13006;MARSEILLE 6E ARRONDISSEMENT;10/01/2022;En intérieur;RPUB_145446.pdf;Oui;1.63;"Etablissement ouvert au public (Ecole, Et Soins, Gare…)";EXEM
172090;5.372787;43.303398;"43°18'12.233""N 5°22'22.033""E";13202;Rue Montolieu;"";13002;MARSEILLE 2E ARRONDISSEMENT;10/01/2022;En extérieur;RPUB_145445.pdf;Oui;1.04;"Etablissement ouvert au public (Ecole, Et Soins, Gare…)";EXEM
172092;5.430551;43.290467;"43°17'25.681""N 5°25'49.984""E";13211;Chemin de la Maternelle;"";13011;MARSEILLE 11E ARRONDISSEMENT;11/01/2022;En intérieur;RPUB_145435.pdf;Oui;0.26;"Etablissement ouvert au public (Ecole, Et Soins, Gare…)";EXEM
172093;5.378971;43.284045;"43°17'2.562""N 5°22'44.296""E";13206;Rue du Docteur Jean Fiolle;"";13006;MARSEILLE 6E ARRONDISSEMENT;10/01/2022;En intérieur;RPUB_145439.pdf;Oui;1.68;"Etablissement ouvert au public (Ecole, Et Soins, Gare…)";EXEM
172094;5.36935;43.309404;"43°18'33.854""N 5°22'9.660""E";13202;Rue du Chevalier Paul;"";13002;MARSEILLE 2E ARRONDISSEMENT;10/01/2022;En extérieur;RPUB_145453.pdf;Oui;0.7;Rue / Route / Parking;EXEM
172095;5.368173;43.305701;"43°18'20.524""N 5°22'5.423""E";13202;Rue Vincent Leblanc;"";13002;MARSEILLE 2E ARRONDISSEMENT;10/01/2022;En extérieur;RPUB_145448.pdf;Oui;0.55;"Etablissement ouvert au public (Ecole, Et Soins, Gare…)";EXEM
172096;5.368388;43.305514;"43°18'19.850""N 5°22'6.197""E";13202;Rue Vincent Leblanc;"";13002;MARSEILLE 2E ARRONDISSEMENT;10/01/2022;En intérieur;RPUB_145447.pdf;Oui;1.26;"Etablissement ouvert au public (Ecole, Et Soins, Gare…)";EXEM
172097;5.487065;43.298769;"43°17'55.568""N 5°29'13.434""E";13211;Chemin Vicinal des Accates;"";13011;MARSEILLE 11E ARRONDISSEMENT;12/01/2022;En extérieur;RPUB_145443.pdf;Oui;0.36;"Etablissement ouvert au public (Ecole, Et Soins, Gare…)";EXEM
172099;5.369444;43.303841;"43°18'13.828""N 5°22'9.998""E";13202;Rue Fauchier;"";13002;MARSEILLE 2E ARRONDISSEMENT;10/01/2022;En extérieur;RPUB_145452.pdf;Oui;0.33;Rue / Route / Parking;EXEM
172100;5.436366;43.293177;"43°17'35.437""N 5°26'10.918""E";13211;Boulevard Soult;"";13011;MARSEILLE 11E ARRONDISSEMENT;11/01/2022;En extérieur;RPUB_145434.pdf;Oui;0.86;"Etablissement ouvert au public (Ecole, Et Soins, Gare…)";EXEM
172102;5.378578;43.284057;"43°17'2.605""N 5°22'42.881""E";13206;Rue du Docteur Jean Fiolle;"";13006;MARSEILLE 6E ARRONDISSEMENT;10/01/2022;En intérieur;RPUB_145440.pdf;Oui;1.4;"Etablissement ouvert au public (Ecole, Et Soins, Gare…)";EXEM
172104;5.412026;43.326353;"43°19'34.871""N 5°24'43.294""E";13213;Rue de Marathon;"";13013;MARSEILLE 13E ARRONDISSEMENT;11/01/2022;En extérieur;RPUB_145437.pdf;Oui;2.55;"Etablissement ouvert au public (Ecole, Et Soins, Gare…)";EXEM
172105;5.374495;43.23675;"43°14'12.300""N 5°22'28.182""E";13208;Traverse Prat;"";13008;MARSEILLE 8E ARRONDISSEMENT;10/01/2022;En extérieur;RPUB_145454.pdf;Oui;1.6;Rue / Route / Parking;EXEM
172107;5.412353;43.326413;"43°19'35.087""N 5°24'44.471""E";13213;Rue de Marathon;"";13013;MARSEILLE 13E ARRONDISSEMENT;11/01/2022;En extérieur;RPUB_145436.pdf;Oui;1.87;"Etablissement ouvert au public (Ecole, Et Soins, Gare…)";EXEM
172108;5.379288;43.283712;"43°17'1.363""N 5°22'45.437""E";13206;Rue du Docteur Jean Fiolle;"";13006;MARSEILLE 6E ARRONDISSEMENT;10/01/2022;En intérieur;RPUB_145444.pdf;Oui;0.54;"Etablissement ouvert au public (Ecole, Et Soins, Gare…)";EXEM
172109;5.386605;43.272245;"43°16'20.082""N 5°23'11.778""E";13208;Rue Jean Mermoz;"";13008;MARSEILLE 8E ARRONDISSEMENT;10/01/2022;En extérieur;RPUB_145442.pdf;Oui;0.31;"Etablissement ouvert au public (Ecole, Et Soins, Gare…)";EXEM
172110;5.366855;43.304509;"43°18'16.232""N 5°22'0.678""E";13202;Place de la Joliette;"";13002;MARSEILLE 2E ARRONDISSEMENT;10/01/2022;En extérieur;RPUB_145451.pdf;Oui;0.95;Rue / Route / Parking;EXEM
172111;5.430379;43.287218;"43°17'13.985""N 5°25'49.364""E";13211;Boulevard Mireille Lauze;"";13011;MARSEILLE 11E ARRONDISSEMENT;11/01/2022;En extérieur;RPUB_145433.pdf;Oui;0.64;"Etablissement ouvert au public (Ecole, Et Soins, Gare…)";EXEM
172112;5.392206;43.27965;"43°16'46.740""N 5°23'31.942""E";13208;Place Louis Ducreux;"";13008;MARSEILLE 8E ARRONDISSEMENT;10/01/2022;En extérieur;RPUB_145450.pdf;Oui;0.26;"Etablissement ouvert au public (Ecole, Et Soins, Gare…)";EXEM
172113;5.492401;43.302997;"43°18'10.789""N 5°29'32.644""E";13211;Chemin Vicinal des Accates;"";13011;MARSEILLE 11E ARRONDISSEMENT;12/01/2022;En extérieur;RPUB_145438.pdf;Oui;0.2;"Etablissement ouvert au public (Ecole, Et Soins, Gare…)";EXEM
172126;5.373986;43.29859;"43°17'54.924""N 5°22'26.350""E";13201;Rue Henri Barbusse;"";13001;MARSEILLE 1ER ARRONDISSEMENT;14/01/2022;En extérieur;RPUB_145473.pdf;Oui;1.16;Rue / Route / Parking;EXEM
172127;5.42708;43.310238;"43°18'36.857""N 5°25'37.488""E";13212;Rue Charles Kaddouz;"";13012;MARSEILLE 12E ARRONDISSEMENT;13/01/2022;En extérieur;RPUB_145489.pdf;Oui;1.15;Rue / Route / Parking;EXEM
172128;5.383443;43.286078;"43°17'9.881""N 5°23'0.395""E";13206;Place Castellane;"";13006;MARSEILLE 6E ARRONDISSEMENT;12/01/2022;En extérieur;RPUB_145476.pdf;Oui;0.43;Rue / Route / Parking;EXEM
172129;5.410289;43.341166;"43°20'28.198""N 5°24'37.040""E";13214;Avenue Escadrille Normandie Niemen;"";13014;MARSEILLE 14E ARRONDISSEMENT;12/01/2022;En extérieur;RPUB_145483.pdf;Oui;3.41;Rue / Route / Parking;EXEM
172130;5.375126;43.298891;"43°17'56.008""N 5°22'30.454""E";13201;Rue Neuve Saint-Martin;"";13001;MARSEILLE 1ER ARRONDISSEMENT;14/01/2022;En extérieur;RPUB_145475.pdf;Oui;1.71;Rue / Route / Parking;EXEM
172131;5.3818;43.315012;"43°18'54.043""N 5°22'54.480""E";13203;"Rue du Jet d'Eau";"";13003;MARSEILLE 3E ARRONDISSEMENT;13/01/2022;En extérieur;RPUB_145472.pdf;Oui;0.64;Rue / Route / Parking;EXEM
172132;5.433242;43.287379;"43°17'14.564""N 5°25'59.671""E";13211;Boulevard Mireille Lauze;"";13011;MARSEILLE 11E ARRONDISSEMENT;13/01/2022;En extérieur;RPUB_145486.pdf;Oui;0.89;Rue / Route / Parking;EXEM
172133;5.446411;43.287347;"43°17'14.449""N 5°26'47.080""E";13211;Boulevard de la Valbarelle;"";13011;MARSEILLE 11E ARRONDISSEMENT;12/01/2022;En extérieur;RPUB_145492.pdf;Oui;0.61;Rue / Route / Parking;EXEM
172134;5.430076;43.307124;"43°18'25.646""N 5°25'48.274""E";13212;Clos Saint Julien;"";13012;MARSEILLE 12E ARRONDISSEMENT;13/01/2022;En extérieur;RPUB_145487.pdf;Oui;0.96;Rue / Route / Parking;EXEM
172135;5.412055;43.330713;"43°19'50.567""N 5°24'43.398""E";13213;Chemin de Merlan a la Rose;"";13013;MARSEILLE 13E ARRONDISSEMENT;13/01/2022;En extérieur;RPUB_145479.pdf;Oui;2.0;Rue / Route / Parking;EXEM
172136;5.410573;43.323578;"43°19'24.881""N 5°24'38.063""E";13213;Impasse Nardy;"";13013;MARSEILLE 13E ARRONDISSEMENT;14/01/2022;En extérieur;RPUB_145480.pdf;Oui;1.83;Rue / Route / Parking;EXEM
172137;5.410166;43.35685;"43°21'24.660""N 5°24'36.598""E";13214;Rue de Lissandre;"";13014;MARSEILLE 14E ARRONDISSEMENT;17/01/2022;En intérieur;RPUB_145466.pdf;Oui;1.29;"Etablissement ouvert au public (Ecole, Et Soins, Gare…)";EXEM
172139;5.397259;43.336688;"43°20'12.077""N 5°23'50.132""E";13214;Traverse Cade;"";13014;MARSEILLE 14E ARRONDISSEMENT;12/01/2022;En extérieur;RPUB_145481.pdf;Oui;1.06;Rue / Route / Parking;EXEM
172140;5.406474;43.341547;"43°20'29.569""N 5°24'23.306""E";13214;Boulevard Notre Dame de Santa Cruz;"";13014;MARSEILLE 14E ARRONDISSEMENT;12/01/2022;En extérieur;RPUB_145482.pdf;Oui;1.07;Rue / Route / Parking;EXEM
172144;5.452459;43.293372;"43°17'36.139""N 5°27'8.852""E";13211;Boulevard de la Pomme;"";13011;MARSEILLE 11E ARRONDISSEMENT;12/01/2022;En extérieur;RPUB_145484.pdf;Oui;0.96;Rue / Route / Parking;EXEM
172146;5.40687;43.327807;"43°19'40.105""N 5°24'24.732""E";13213;Avenue Saint Paul;"";13013;MARSEILLE 13E ARRONDISSEMENT;13/01/2022;En extérieur;RPUB_145478.pdf;Oui;0.94;Rue / Route / Parking;EXEM
172148;5.424317;43.279693;"43°16'46.895""N 5°25'27.541""E";13210;Boulevard Romain Rolland;"";13010;MARSEILLE 10E ARRONDISSEMENT;13/01/2022;En extérieur;RPUB_145491.pdf;Oui;0.55;Rue / Route / Parking;EXEM
172149;5.379481;43.285586;"43°17'8.110""N 5°22'46.132""E";13206;Rue Stanislas Torrents;"";13006;MARSEILLE 6E ARRONDISSEMENT;12/01/2022;En extérieur;RPUB_145494.pdf;Oui;1.73;Rue / Route / Parking;EXEM
172151;5.377486;43.302711;"43°18'9.760""N 5°22'38.950""E";13201;Boulevard Charles Nedelec Belsunce;"";13001;MARSEILLE 1ER ARRONDISSEMENT;14/01/2022;En extérieur;RPUB_145474.pdf;Oui;1.24;Rue / Route / Parking;EXEM
172152;5.385039;43.291787;"43°17'30.433""N 5°23'6.140""E";13206;Rue De Lodi;"";13006;MARSEILLE 6E ARRONDISSEMENT;12/01/2022;En extérieur;RPUB_145493.pdf;Oui;1.41;Rue / Route / Parking;EXEM
172153;5.477764;43.314486;"43°18'52.150""N 5°28'39.950""E";13211;Traverse de la Salette;"";13011;MARSEILLE 11E ARRONDISSEMENT;12/01/2022;En extérieur;RPUB_145485.pdf;Oui;1.67;Rue / Route / Parking;EXEM
172154;5.372847;43.307349;"43°18'26.456""N 5°22'22.249""E";13203;Rue Peyssonnel;"";13003;MARSEILLE 3E ARRONDISSEMENT;12/01/2022;En extérieur;RPUB_145471.pdf;Oui;0.73;Rue / Route / Parking;EXEM
172156;5.398897;43.30122;"43°18'4.392""N 5°23'56.029""E";13204;Avenue Du Marcechal Foch;"";13004;MARSEILLE 4E ARRONDISSEMENT;05/01/2022;En extérieur;RPUB_145477.pdf;Oui;0.68;Rue / Route / Parking;EXEM
172157;5.373065;43.306966;"43°18'25.078""N 5°22'23.034""E";13203;Rue Peyssonnel;"";13003;MARSEILLE 3E ARRONDISSEMENT;12/01/2022;En extérieur;RPUB_145469.pdf;Oui;0.56;Rue / Route / Parking;EXEM
172158;5.369646;43.309571;"43°18'34.456""N 5°22'10.726""E";13202;Rue Melchior Guinot;"";13002;MARSEILLE 2E ARRONDISSEMENT;12/01/2022;En extérieur;RPUB_145470.pdf;Oui;0.31;Rue / Route / Parking;EXEM
172160;5.457578;43.311304;"43°18'40.694""N 5°27'27.281""E";13212;Avenue Fernandel;"";13012;MARSEILLE 12E ARRONDISSEMENT;13/01/2022;En extérieur;RPUB_145490.pdf;Oui;0.75;Rue / Route / Parking;EXEM
172161;5.449832;43.312345;"43°18'44.442""N 5°26'59.395""E";13212;Avenue Fernandel;"";13012;MARSEILLE 12E ARRONDISSEMENT;13/01/2022;En extérieur;RPUB_145488.pdf;Oui;1.4;Rue / Route / Parking;EXEM
172163;5.416598;43.330078;"43°19'48.281""N 5°24'59.753""E";13213;Rue des Polytres;"";13013;MARSEILLE 13E ARRONDISSEMENT;11/01/2022;En intérieur;RPUB_145542.pdf;Oui;0.96;"Etablissement ouvert au public (Ecole, Et Soins, Gare…)";EXEM
172164;5.415766;43.315429;"43°18'55.544""N 5°24'56.758""E";13212;Boulevard Tristan Corbiere;"";13012;MARSEILLE 12E ARRONDISSEMENT;14/01/2022;En intérieur;RPUB_145504.pdf;Oui;0.2;"Etablissement ouvert au public (Ecole, Et Soins, Gare…)";EXEM
172165;5.369332;43.316061;"43°18'57.820""N 5°22'9.595""E";13202;Rue Urbain V;"";13002;MARSEILLE 2E ARRONDISSEMENT;12/01/2022;En intérieur;RPUB_145509.pdf;Oui;0.29;"Etablissement ouvert au public (Ecole, Et Soins, Gare…)";EXEM
172166;5.447845;43.300291;"43°18'1.048""N 5°26'52.242""E";13212;Chemin des Champanules;"";13012;MARSEILLE 12E ARRONDISSEMENT;14/01/2022;En extérieur;RPUB_145511.pdf;Oui;1.93;"Etablissement ouvert au public (Ecole, Et Soins, Gare…)";EXEM
172167;5.353925;43.347886;"43°20'52.390""N 5°21'14.130""E";13215;Rue des Musardises;"";13015;MARSEILLE 15E ARRONDISSEMENT;17/01/2022;En extérieur;RPUB_145546.pdf;Oui;0.46;"Etablissement ouvert au public (Ecole, Et Soins, Gare…)";EXEM
172168;5.365984;43.237879;"43°14'16.364""N 5°21'57.542""E";13208;Place Engaliere;"";13008;MARSEILLE 8E ARRONDISSEMENT;12/01/2022;En extérieur;RPUB_145526.pdf;Oui;0.25;"Etablissement ouvert au public (Ecole, Et Soins, Gare…)";EXEM
172169;5.360431;43.288015;"43°17'16.854""N 5°21'37.552""E";13207;Rue Paul Codaccioni;"";13007;MARSEILLE 7E ARRONDISSEMENT;11/01/2022;En extérieur;RPUB_145536.pdf;Oui;0.7;"Etablissement ouvert au public (Ecole, Et Soins, Gare…)";EXEM
172170;5.405638;43.324054;"43°19'26.594""N 5°24'20.297""E";13213;Avenue Corot;"";13013;MARSEILLE 13E ARRONDISSEMENT;12/01/2022;En extérieur;RPUB_145502.pdf;Oui;0.36;"Etablissement ouvert au public (Ecole, Et Soins, Gare…)";EXEM
172171;5.377142;43.306787;"43°18'24.433""N 5°22'37.711""E";13203;Rue Lucien Rolmer;"";13003;MARSEILLE 3E ARRONDISSEMENT;14/01/2022;En intérieur;RPUB_145538.pdf;Oui;1.74;"Etablissement ouvert au public (Ecole, Et Soins, Gare…)";EXEM
172173;5.368559;43.301306;"43°18'4.702""N 5°22'6.812""E";13202;Rue François Moisson;"";13002;MARSEILLE 2E ARRONDISSEMENT;11/01/2022;En intérieur;RPUB_145522.pdf;Oui;0.24;"Etablissement ouvert au public (Ecole, Et Soins, Gare…)";EXEM
172174;5.373967;43.344359;"43°20'39.692""N 5°22'26.281""E";13215;Rue du Capricorne;"";13015;MARSEILLE 15E ARRONDISSEMENT;17/01/2022;En extérieur;RPUB_145543.pdf;Oui;0.37;"Etablissement ouvert au public (Ecole, Et Soins, Gare…)";EXEM
172175;5.352359;43.282884;"43°16'58.382""N 5°21'8.492""E";13207;Rue Pierre Mouren;"";13007;MARSEILLE 7E ARRONDISSEMENT;11/01/2022;En extérieur;RPUB_145541.pdf;Oui;0.6;"Etablissement ouvert au public (Ecole, Et Soins, Gare…)";EXEM
172176;5.365721;43.287841;"43°17'16.228""N 5°21'56.596""E";13207;Rue Candolle;"";13007;MARSEILLE 7E ARRONDISSEMENT;11/01/2022;En extérieur;RPUB_145510.pdf;Oui;1.63;"Etablissement ouvert au public (Ecole, Et Soins, Gare…)";EXEM
172177;5.355148;43.292544;"43°17'33.158""N 5°21'18.533""E";13207;Rue des Catalans;"";13007;MARSEILLE 7E ARRONDISSEMENT;11/01/2022;En intérieur;RPUB_145534.pdf;Oui;0.99;"Etablissement ouvert au public (Ecole, Et Soins, Gare…)";EXEM
172178;5.427804;43.317973;"43°19'4.703""N 5°25'40.094""E";13212;Boulevard Die;"";13012;MARSEILLE 12E ARRONDISSEMENT;14/01/2022;En intérieur;RPUB_145503.pdf;Oui;0.21;"Etablissement ouvert au public (Ecole, Et Soins, Gare…)";EXEM
172179;5.446826;43.337892;"43°20'16.411""N 5°26'48.574""E";13213;Rue Robert de Roux;"";13013;MARSEILLE 13E ARRONDISSEMENT;13/01/2022;En extérieur;RPUB_145520.pdf;Oui;0.19;"Etablissement ouvert au public (Ecole, Et Soins, Gare…)";EXEM
172180;5.36974;43.309269;"43°18'33.368""N 5°22'11.064""E";13202;Rue du Chevalier Paul;"";13002;MARSEILLE 2E ARRONDISSEMENT;13/01/2022;En intérieur;RPUB_145513.pdf;Oui;0.26;"Etablissement ouvert au public (Ecole, Et Soins, Gare…)";EXEM
172181;5.431064;43.326043;"43°19'33.755""N 5°25'51.830""E";13213;Impasse Ravel;"";13013;MARSEILLE 13E ARRONDISSEMENT;11/01/2022;En intérieur;RPUB_145535.pdf;Oui;0.2;"Etablissement ouvert au public (Ecole, Et Soins, Gare…)";EXEM
172182;5.41141;43.331218;"43°19'52.385""N 5°24'41.076""E";13213;Rue Fernand Leger;"";13013;MARSEILLE 13E ARRONDISSEMENT;13/01/2022;En extérieur;RPUB_145539.pdf;Oui;2.01;"Etablissement ouvert au public (Ecole, Et Soins, Gare…)";EXEM
172183;5.397484;43.335495;"43°20'7.782""N 5°23'50.942""E";13214;Rue de la Crau;"";13014;MARSEILLE 14E ARRONDISSEMENT;18/01/2022;En extérieur;RPUB_145516.pdf;Oui;0.94;"Etablissement ouvert au public (Ecole, Et Soins, Gare…)";EXEM
172185;5.361939;43.328626;"43°19'43.054""N 5°21'42.980""E";13215;Place Edgar Tarquin;"";13015;MARSEILLE 15E ARRONDISSEMENT;17/01/2022;En intérieur;RPUB_145529.pdf;Oui;1.12;"Etablissement ouvert au public (Ecole, Et Soins, Gare…)";EXEM
172187;5.413192;43.327027;"43°19'37.297""N 5°24'47.491""E";13213;Rue du Marathon;"";13013;MARSEILLE 13E ARRONDISSEMENT;13/01/2022;En extérieur;RPUB_145531.pdf;Oui;1.89;"Etablissement ouvert au public (Ecole, Et Soins, Gare…)";EXEM
172188;5.369117;43.315827;"43°18'56.977""N 5°22'8.821""E";13202;Rue Urbain V;"";13002;MARSEILLE 2E ARRONDISSEMENT;12/01/2022;En extérieur;RPUB_145508.pdf;Oui;0.36;"Etablissement ouvert au public (Ecole, Et Soins, Gare…)";EXEM
172189;5.405059;43.28568;"43°17'8.448""N 5°24'18.212""E";13210;Rue Roger Mathurin;"";13010;MARSEILLE 10E ARRONDISSEMENT;18/01/2022;En extérieur;RPUB_145533.pdf;Oui;1.04;"Etablissement ouvert au public (Ecole, Et Soins, Gare…)";EXEM
172190;5.405859;43.319186;"43°19'9.070""N 5°24'21.092""E";13213;Rue Saint Georges;"";13013;MARSEILLE 13E ARRONDISSEMENT;14/01/2022;En extérieur;RPUB_145544.pdf;Oui;0.19;"Etablissement ouvert au public (Ecole, Et Soins, Gare…)";EXEM
172191;5.382786;43.293193;"43°17'35.495""N 5°22'58.030""E";13206;"Rue d'Aubagne";"";13006;MARSEILLE 6E ARRONDISSEMENT;12/01/2022;En intérieur;RPUB_145514.pdf;Oui;1.13;"Etablissement ouvert au public (Ecole, Et Soins, Gare…)";EXEM
172192;5.367808;43.29826;"43°17'53.736""N 5°22'4.109""E";13202;Rue des Muettes;"";13002;MARSEILLE 2E ARRONDISSEMENT;11/01/2022;En intérieur;RPUB_145527.pdf;Oui;0.2;"Etablissement ouvert au public (Ecole, Et Soins, Gare…)";EXEM
172193;5.405621;43.319327;"43°19'9.577""N 5°24'20.236""E";13213;Rue Saint Georges;"";13013;MARSEILLE 13E ARRONDISSEMENT;14/01/2022;En extérieur;RPUB_145545.pdf;Oui;0.23;"Etablissement ouvert au public (Ecole, Et Soins, Gare…)";EXEM
172194;5.370276;43.304499;"43°18'16.196""N 5°22'12.994""E";13202;"Rue d'Hozier";"";13002;MARSEILLE 2E ARRONDISSEMENT;13/01/2022;En intérieur;RPUB_145523.pdf;Oui;0.23;"Etablissement ouvert au public (Ecole, Et Soins, Gare…)";EXEM
172195;5.380664;43.248308;"43°14'53.909""N 5°22'50.390""E";13208;Boulevard des Neiges;"";13008;MARSEILLE 8E ARRONDISSEMENT;03/01/2022;En extérieur;RPUB_145528.pdf;Oui;0.25;"Etablissement ouvert au public (Ecole, Et Soins, Gare…)";EXEM
172197;5.360255;43.326887;"43°19'36.793""N 5°21'36.918""E";13202;Chemin de la Madrague-Ville;"";13002;MARSEILLE 2E ARRONDISSEMENT;12/01/2022;En intérieur;RPUB_145506.pdf;Oui;4.54;"Etablissement ouvert au public (Ecole, Et Soins, Gare…)";EXEM
172198;5.415066;43.320813;"43°19'14.927""N 5°24'54.238""E";13213;Rue du Docteur Grenier;"";13013;MARSEILLE 13E ARRONDISSEMENT;14/01/2022;En intérieur;RPUB_145530.pdf;Oui;1.16;"Etablissement ouvert au public (Ecole, Et Soins, Gare…)";EXEM
172199;5.390425;43.322743;"43°19'21.875""N 5°23'25.530""E";13214;Boulevard Charles Moretti Prolonge;"";13014;MARSEILLE 14E ARRONDISSEMENT;17/01/2022;En extérieur;RPUB_145550.pdf;Oui;0.87;Rue / Route / Parking;EXEM
172201;5.396755;43.334769;"43°20'5.168""N 5°23'48.318""E";13214;Rue de la Crau;"";13014;MARSEILLE 14E ARRONDISSEMENT;18/01/2022;En extérieur;RPUB_145518.pdf;Oui;3.05;"Etablissement ouvert au public (Ecole, Et Soins, Gare…)";EXEM
172203;5.410117;43.300854;"43°18'3.074""N 5°24'36.421""E";13212;Rue Beau;"";13012;MARSEILLE 12E ARRONDISSEMENT;13/01/2022;En extérieur;RPUB_145551.pdf;Oui;0.8;Rue / Route / Parking;EXEM
172204;5.397227;43.335066;"43°20'6.238""N 5°23'50.017""E";13214;Rue de la Crau;"";13014;MARSEILLE 14E ARRONDISSEMENT;18/01/2022;En intérieur;RPUB_145517.pdf;Oui;0.89;"Etablissement ouvert au public (Ecole, Et Soins, Gare…)";EXEM
172205;5.373237;43.307294;"43°18'26.258""N 5°22'23.653""E";13203;Rue Peyssonel;"";13003;MARSEILLE 3E ARRONDISSEMENT;13/01/2022;En intérieur;RPUB_145537.pdf;Oui;0.3;"Etablissement ouvert au public (Ecole, Et Soins, Gare…)";EXEM
172206;5.369203;43.301024;"43°18'3.686""N 5°22'9.131""E";13202;Rue François Moisson;"";13002;MARSEILLE 2E ARRONDISSEMENT;11/01/2022;En extérieur;RPUB_145521.pdf;Oui;1.27;"Etablissement ouvert au public (Ecole, Et Soins, Gare…)";EXEM
172208;5.428065;43.328766;"43°19'43.558""N 5°25'41.034""E";13213;Place de la Rose;"";13013;MARSEILLE 13E ARRONDISSEMENT;11/01/2022;En extérieur;RPUB_145540.pdf;Oui;1.38;"Etablissement ouvert au public (Ecole, Et Soins, Gare…)";EXEM
172209;5.399549;43.342634;"43°20'33.482""N 5°23'58.376""E";13214;Rue Gabriel Audisio;"";13014;MARSEILLE 14E ARRONDISSEMENT;12/01/2022;En extérieur;RPUB_145532.pdf;Oui;0.28;"Etablissement ouvert au public (Ecole, Et Soins, Gare…)";EXEM
172210;5.366199;43.300189;"43°18'0.680""N 5°21'58.316""E";13202;"Rue de l'Eveche";"";13002;MARSEILLE 2E ARRONDISSEMENT;11/01/2022;En intérieur;RPUB_145524.pdf;Oui;1.63;"Etablissement ouvert au public (Ecole, Et Soins, Gare…)";EXEM
172211;5.427825;43.31731;"43°19'2.316""N 5°25'40.170""E";13212;"Rue de l'Aiguillette";"";13012;MARSEILLE 12E ARRONDISSEMENT;14/01/2022;En intérieur;RPUB_145525.pdf;Oui;0.24;"Etablissement ouvert au public (Ecole, Et Soins, Gare…)";EXEM
172213;5.446826;43.337892;"43°20'16.411""N 5°26'48.574""E";13213;Rue Robert de Roux;"";13013;MARSEILLE 13E ARRONDISSEMENT;13/01/2022;En extérieur;RPUB_145519.pdf;Oui;0.33;"Etablissement ouvert au public (Ecole, Et Soins, Gare…)";EXEM
172215;5.405381;43.339841;"43°20'23.428""N 5°24'19.372""E";13214;Boulevard Notre Dame de Santa Cruz;"";13014;MARSEILLE 14E ARRONDISSEMENT;17/01/2022;En extérieur;RPUB_145505.pdf;Oui;1.11;"Etablissement ouvert au public (Ecole, Et Soins, Gare…)";EXEM
172216;5.371971;43.301618;"43°18'5.825""N 5°22'19.096""E";13202;Place du Terras;"";13002;MARSEILLE 2E ARRONDISSEMENT;11/01/2022;En intérieur;RPUB_145515.pdf;Oui;0.3;"Etablissement ouvert au public (Ecole, Et Soins, Gare…)";EXEM
172219;5.369997;43.308832;"43°18'31.795""N 5°22'11.989""E";13202;Rue Desiree Clary;"";13002;MARSEILLE 2E ARRONDISSEMENT;13/01/2022;En extérieur;RPUB_145512.pdf;Oui;0.39;"Etablissement ouvert au public (Ecole, Et Soins, Gare…)";EXEM
172222;5.365693;43.38567;"43°23'8.412""N 5°21'56.495""E";13215;Chemin des Bourrely;"";13015;MARSEILLE 15E ARRONDISSEMENT;18/01/2022;En extérieur;RPUB_145565.pdf;Oui;0.7;"Etablissement ouvert au public (Ecole, Et Soins, Gare…)";EXEM
172223;5.364707;43.386402;"43°23'11.047""N 5°21'52.945""E";13215;Chemin des Bourrely;"";13015;MARSEILLE 15E ARRONDISSEMENT;18/01/2022;En intérieur;RPUB_145564.pdf;Oui;0.31;"Etablissement ouvert au public (Ecole, Et Soins, Gare…)";EXEM
172224;5.368528;43.37199;"43°22'19.164""N 5°22'6.701""E";13215;Traverse Courtes;"";13015;MARSEILLE 15E ARRONDISSEMENT;18/01/2022;En intérieur;RPUB_145563.pdf;Oui;1.47;"Etablissement ouvert au public (Ecole, Et Soins, Gare…)";EXEM
172225;5.405499;43.324394;"43°19'27.818""N 5°24'19.796""E";13213;Traverse Signoret;"";13013;MARSEILLE 13E ARRONDISSEMENT;13/01/2022;En intérieur;RPUB_145567.pdf;Oui;0.84;"Etablissement ouvert au public (Ecole, Et Soins, Gare…)";EXEM
172227;5.358946;43.383102;"43°22'59.167""N 5°21'32.206""E";13215;Traverse de Arlesienne;"";13015;MARSEILLE 15E ARRONDISSEMENT;18/01/2022;En extérieur;RPUB_145562.pdf;Oui;0.81;"Etablissement ouvert au public (Ecole, Et Soins, Gare…)";EXEM
172228;5.358667;43.357201;"43°21'25.924""N 5°21'31.201""E";13215;Rue Serge Douriant;"";13015;MARSEILLE 15E ARRONDISSEMENT;17/01/2022;En extérieur;RPUB_145568.pdf;Oui;4.38;"Etablissement ouvert au public (Ecole, Et Soins, Gare…)";EXEM
172229;5.406257;43.319645;"43°19'10.722""N 5°24'22.525""E";13213;Rue Saint Georges;"";13013;MARSEILLE 13E ARRONDISSEMENT;14/01/2022;En intérieur;RPUB_145566.pdf;Oui;0.29;"Etablissement ouvert au public (Ecole, Et Soins, Gare…)";EXEM
172231;5.398192;43.294114;"43°17'38.810""N 5°23'53.491""E";13205;Rue Du Camas;"";13005;MARSEILLE 5E ARRONDISSEMENT;19/01/2022;En extérieur;RPUB_145578.pdf;Oui;2.11;Rue / Route / Parking;EXEM
172232;5.398257;43.29249;"43°17'32.964""N 5°23'53.725""E";13205;Rue Saint Pierre;"";13005;MARSEILLE 5E ARRONDISSEMENT;19/01/2022;En extérieur;RPUB_145576.pdf;Oui;2.65;Rue / Route / Parking;EXEM
172233;5.399694;43.292747;"43°17'33.889""N 5°23'58.898""E";13205;Rue Saint Pierre;"";13005;MARSEILLE 5E ARRONDISSEMENT;19/01/2022;En extérieur;RPUB_145575.pdf;Oui;1.12;Rue / Route / Parking;EXEM
172234;5.392965;43.283006;"43°16'58.822""N 5°23'34.674""E";13210;Rue Menpenti;"";13010;MARSEILLE 10E ARRONDISSEMENT;19/01/2022;En extérieur;RPUB_145581.pdf;Oui;2.3;Rue / Route / Parking;EXEM
172235;5.391542;43.300443;"43°18'1.595""N 5°23'29.551""E";13204;Rue Saint Vincent de Paul;"";13004;MARSEILLE 4E ARRONDISSEMENT;19/01/2022;En extérieur;RPUB_145574.pdf;Oui;0.37;"Etablissement ouvert au public (Ecole, Et Soins, Gare…)";EXEM
172236;5.480609;43.298483;"43°17'54.539""N 5°28'50.192""E";13211;Route des Trois Lucs a la Valentine;"";13011;MARSEILLE 11E ARRONDISSEMENT;19/01/2022;En extérieur;RPUB_145582.pdf;Oui;1.81;Rue / Route / Parking;EXEM
172237;5.43018;43.307459;"43°18'26.852""N 5°25'48.648""E";13212;Avenue du Vingt Quatre Avril 1915;"";13012;MARSEILLE 12E ARRONDISSEMENT;14/01/2022;En extérieur;RPUB_145571.pdf;Oui;1.08;"Etablissement ouvert au public (Ecole, Et Soins, Gare…)";EXEM
172239;5.404937;43.286095;"43°17'9.942""N 5°24'17.773""E";13210;Avenue de la Timone;"";13010;MARSEILLE 10E ARRONDISSEMENT;19/01/2022;En extérieur;RPUB_145580.pdf;Oui;0.41;Rue / Route / Parking;EXEM
172240;5.34916;43.280746;"43°16'50.686""N 5°20'56.976""E";13207;Rue de la Douane;"";13007;MARSEILLE 7E ARRONDISSEMENT;11/01/2022;En extérieur;RPUB_145583.pdf;Oui;0.42;Rue / Route / Parking;EXEM
172242;5.379975;43.306779;"43°18'24.404""N 5°22'47.910""E";13203;Rue du 141eme R.I.A;"";13003;MARSEILLE 3E ARRONDISSEMENT;14/01/2022;En intérieur;RPUB_145573.pdf;Oui;0.38;"Etablissement ouvert au public (Ecole, Et Soins, Gare…)";EXEM
172244;5.399201;43.292412;"43°17'32.683""N 5°23'57.124""E";13205;Allée Fraissinet;"";13005;MARSEILLE 5E ARRONDISSEMENT;19/01/2022;En extérieur;RPUB_145577.pdf;Oui;1.44;Rue / Route / Parking;EXEM
172245;5.425272;43.313079;"43°18'47.084""N 5°25'30.979""E";13212;"Rue de l'Aiguilette";"";13012;MARSEILLE 12E ARRONDISSEMENT;19/01/2022;En extérieur;RPUB_145579.pdf;Oui;1.51;Rue / Route / Parking;EXEM
172246;5.450356;43.320393;"43°19'13.415""N 5°27'1.282""E";13213;Traverse des Platrieres;"";13013;MARSEILLE 13E ARRONDISSEMENT;20/01/2022;En intérieur;RPUB_145593.pdf;Oui;0.15;"Etablissement ouvert au public (Ecole, Et Soins, Gare…)";EXEM
172247;5.395058;43.316615;"43°18'59.814""N 5°23'42.209""E";13213;Rue Chalusset;"";13013;MARSEILLE 13E ARRONDISSEMENT;20/01/2022;En extérieur;RPUB_145596.pdf;Oui;0.86;Rue / Route / Parking;EXEM
172253;5.4198;43.334176;"43°20'3.034""N 5°25'11.280""E";13213;Traverse Charles Susini;"";13013;MARSEILLE 13E ARRONDISSEMENT;20/01/2022;En intérieur;RPUB_145595.pdf;Oui;0.23;"Etablissement ouvert au public (Ecole, Et Soins, Gare…)";EXEM
172256;5.368302;43.354026;"43°21'14.494""N 5°22'5.887""E";13215;"Traverse de l'Oasis";"";13015;MARSEILLE 15E ARRONDISSEMENT;20/01/2022;En extérieur;RPUB_145592.pdf;Oui;1.39;"Etablissement ouvert au public (Ecole, Et Soins, Gare…)";EXEM
172259;5.433404;43.337227;"43°20'14.017""N 5°26'0.254""E";13213;Rue Albert Einstein;"";13013;MARSEILLE 13E ARRONDISSEMENT;20/01/2022;En intérieur;RPUB_145594.pdf;Oui;0.23;"Etablissement ouvert au public (Ecole, Et Soins, Gare…)";EXEM
172261;5.352252;43.283134;"43°16'59.282""N 5°21'8.107""E";13207;Rue Pierre Mouren;"";13007;MARSEILLE 7E ARRONDISSEMENT;21/01/2022;En extérieur;RPUB_145608.pdf;Oui;0.25;"Etablissement ouvert au public (Ecole, Et Soins, Gare…)";EXEM
172262;5.369611;43.292006;"43°17'31.222""N 5°22'10.600""E";13207;Rue Neuve Sainte Catherine;"";13007;MARSEILLE 7E ARRONDISSEMENT;21/01/2022;En extérieur;RPUB_145604.pdf;Oui;0.96;"Etablissement ouvert au public (Ecole, Et Soins, Gare…)";EXEM
172263;5.446708;43.312806;"43°18'46.102""N 5°26'48.149""E";13212;Rue du Groupe Scolaire;"";13012;MARSEILLE 12E ARRONDISSEMENT;24/01/2022;En intérieur;RPUB_145609.pdf;Oui;0.28;"Etablissement ouvert au public (Ecole, Et Soins, Gare…)";EXEM
172266;5.355427;43.292755;"43°17'33.918""N 5°21'19.537""E";13207;Rue des Catalans;"";13007;MARSEILLE 7E ARRONDISSEMENT;21/01/2022;En extérieur;RPUB_145605.pdf;Oui;0.95;"Etablissement ouvert au public (Ecole, Et Soins, Gare…)";EXEM
172269;5.417478;43.30238;"43°18'8.568""N 5°25'2.921""E";13212;Rue du Docteur Cauvin;"";13012;MARSEILLE 12E ARRONDISSEMENT;21/01/2022;En extérieur;RPUB_145607.pdf;Oui;2.4;"Etablissement ouvert au public (Ecole, Et Soins, Gare…)";EXEM
172270;5.43304;43.337852;"43°20'16.267""N 5°25'58.944""E";13213;189 Parc des Vieux Cypres;"";13013;MARSEILLE 13E ARRONDISSEMENT;20/01/2022;En intérieur;RPUB_145606.pdf;Oui;0.27;"Etablissement ouvert au public (Ecole, Et Soins, Gare…)";EXEM
172271;5.369504;43.352138;"43°21'7.697""N 5°22'10.214""E";13215;"Traverse de l'Oasis";"";13015;MARSEILLE 15E ARRONDISSEMENT;20/01/2022;En extérieur;RPUB_145610.pdf;Oui;0.98;Rue / Route / Parking;EXEM
172272;5.362229;43.277682;"43°16'39.655""N 5°21'44.024""E";13207;"Chemin du Vallon de l'Oriol";"";13007;MARSEILLE 7E ARRONDISSEMENT;21/01/2022;En extérieur;RPUB_145612.pdf;Oui;0.12;Rue / Route / Parking;EXEM
172275;5.410988;43.300971;"43°18'3.496""N 5°24'39.557""E";13212;Rue Beau;"";13012;MARSEILLE 12E ARRONDISSEMENT;21/01/2022;En extérieur;RPUB_145603.pdf;Oui;1.66;"Etablissement ouvert au public (Ecole, Et Soins, Gare…)";EXEM
172276;5.369447;43.290282;"43°17'25.015""N 5°22'10.009""E";13207;Boulevard de la Corderie;"";13007;MARSEILLE 7E ARRONDISSEMENT;21/01/2022;En extérieur;RPUB_145611.pdf;Oui;0.77;Rue / Route / Parking;EXEM
172278;5.422482;43.298354;"43°17'54.074""N 5°25'20.935""E";13212;Rue de la Boiseraie;"";13012;MARSEILLE 12E ARRONDISSEMENT;21/01/2022;En extérieur;RPUB_145601.pdf;Oui;0.4;"Etablissement ouvert au public (Ecole, Et Soins, Gare…)";EXEM
172279;5.438426;43.318278;"43°19'5.801""N 5°26'18.334""E";13212;Rue Charles Kaddouz;"";13012;MARSEILLE 12E ARRONDISSEMENT;24/01/2022;En extérieur;RPUB_145602.pdf;Oui;1.49;"Etablissement ouvert au public (Ecole, Et Soins, Gare…)";EXEM
